space_id,old_id,space_type,space_name,language,lat,long,wikidata_id,note,created,created_by,last_modified,last_modified_by
SP0001,L0001,L,library,en,0.0,0.0,,,2018-07-23,MG,2020-04-05,DP
SP0002,L0002,L,prison,en,0.0,0.0,,,2018-07-23,MG,2020-04-05,DP
SP0003,L0003,L,book store,en,0.0,0.0,,,2018-07-30,MG,2020-04-05,DP
SP0004,PL0001,PL,China,en,35.86166,104.195397,Q148,,2017-07-07,OS,2022-06-29,ReadActor
SP0005,PL0002,PL,Beijing,en,39.9042,116.407396,Q956,,2017-07-08,OS,2022-06-29,ReadActor
SP0006,PL0003,PL,Shanghai,en,31.23039,121.473702,Q8686,,2017-07-09,OS,2022-06-29,ReadActor
SP0007,PL0004,PL,Chengdu,en,30.572815,104.066801,Q30002,,2017-07-10,OS,2022-06-29,ReadActor
SP0008,PL0005,PL,Xuanhua,en,40.608793,115.099494,Q1196658,,2017-07-11,OS,2022-06-29,ReadActor
SP0009,PL0006,PL,Sichuan,en,30.263803,102.805475,Q19770,,2017-07-12,OS,2022-06-29,ReadActor
SP0010,PL0007,PL,Yunnan,en,24.475285,101.343106,Q43194,,2017-07-13,OS,2022-06-29,ReadActor
SP0011,PL0008,PL,Heilongjiang,en,47.121647,128.738231,Q19206,,2017-07-14,OS,2022-06-29,ReadActor
SP0012,PL0009,PL,Laixi,en,36.889084,120.51769,Q1198038,,2017-07-15,OS,2022-06-29,ReadActor
SP0013,PL0010,PL,Ningnan,en,27.066308,102.759686,Q264357,,2017-07-16,OS,2022-06-29,ReadActor
SP0014,PL0011,PL,Shandong,en,35.893957,117.9249,Q43407,,2017-07-17,OS,2022-06-29,ReadActor
SP0015,PL0012,PL,Chongqing,en,29.561008,106.552635,Q11725,,2017-07-18,OS,2022-06-29,ReadActor
SP0016,PL0013,PL,Shenqiu,en,33.409368,115.098583,,,2017-07-19,OS,2020-04-05,DP
SP0017,PL0014,PL,Xinjiang,en,42.524636,87.539585,,,2017-07-20,OS,2020-04-05,DP
SP0018,PL0015,PL,Xianning,en,29.841438,114.322439,Q71373,,2017-07-21,OS,2022-06-29,ReadActor
SP0019,PL0016,PL,Germany,en,51.165691,10.451526,Q183,,2017-07-22,OS,2022-06-29,ReadActor
SP0020,PL0017,PL,Hongkong,en,22.396428,114.109497,Q8646,,2017-07-23,OS,2022-05-03,ReadActor
SP0021,PL0018,PL,Tianjin,en,39.343357,117.361648,Q11736,,2017-07-24,OS,2022-06-29,ReadActor
SP0022,PL0019,PL,Harbin,en,45.803775,126.534967,Q42956,,2017-07-08,OS,2022-06-29,ReadActor
SP0023,PL0020,PL,Shenyang,en,41.805699,123.431472,Q11720,,2017-07-08,OS,2022-06-29,ReadActor
SP0024,PL0021,PL,Yan'an,en,36.585445,109.489757,Q515388,,2017-07-08,OS,2022-06-29,ReadActor
SP0025,PL0022,PL,Baiyangdian,en,38.941441,115.969465,Q2665615,,2017-07-08,OS,2022-05-03,ReadActor
SP0026,PL0023,PL,Breslau,en,51.107885,17.038538,Q1799,,2017-07-08,OS,2022-05-03,ReadActor
SP0027,PL0024,PL,Sheker,en,42.544292,71.171379,Q2600970,,2017-07-09,OS,2022-05-03,ReadActor
SP0028,PL0025,PL,Bolshoy Fontan,en,46.482526,30.72331,,,2017-07-09,OS,2020-04-05,DP
SP0029,PL0026,PL,Kazan,en,55.830431,49.066081,Q900,,2017-07-09,OS,2022-06-29,ReadActor
SP0030,PL0027,PL,Moscow,en,55.755826,37.6173,Q649,,2017-07-09,OS,2022-06-29,ReadActor
SP0031,PL0028,PL,Birmendreïs,en,36.735349,3.050374,Q2534015,,2017-07-09,OS,2022-05-03,ReadActor
SP0032,PL0029,PL,Vonu,en,40.141308,19.692947,,,2017-07-09,OS,2020-04-05,DP
SP0033,PL0030,PL,Oryol,en,52.966847,36.06249,Q3118,,2017-07-09,OS,2022-06-29,ReadActor
SP0034,PL0031,PL,Stagira,en,40.591667,23.794722,Q846127,,2017-07-09,OS,2022-06-29,ReadActor
SP0035,PL0032,PL,Dobroslavivka,en,50.3253,34.82574,Q4163777,,2017-07-09,OS,2022-06-29,ReadActor
SP0036,PL0033,PL,Craiova,en,44.330179,23.794881,Q168057,,2017-07-10,OS,2022-06-29,ReadActor
SP0037,PL0034,PL,Izium Raion,en,49.212145,37.266501,Q103826383,,2017-07-10,OS,2022-06-29,ReadActor
SP0038,PL0035,PL,Eisenach,en,50.979571,10.314687,Q7070,,2017-07-10,OS,2022-06-29,ReadActor
SP0039,PL0036,PL,London,en,51.507351,-0.127758,Q84,,2017-07-10,OS,2022-06-29,ReadActor
SP0040,PL0037,PL,Haimen,en,31.871173,121.181615,Q678701,,2017-07-10,OS,2022-06-29,ReadActor
SP0041,PL0038,PL,Schöneberg,en,52.489344,13.352548,Q313189,,2017-07-10,OS,2022-06-29,ReadActor
SP0042,PL0039,PL,Shuya,en,56.851134,41.357534,Q198358,,2017-07-10,OS,2022-06-29,ReadActor
SP0043,PL0040,PL,Tours,en,47.394144,0.68484,Q288,,2017-07-10,OS,2022-06-29,ReadActor
SP0044,PL0041,PL,Foxrock,en,53.266889,-6.18401,,,2017-07-10,OS,2020-04-05,DP
SP0045,PL0042,PL,Bonn,en,50.73743,7.098207,Q586,,2017-07-10,OS,2022-06-29,ReadActor
SP0046,PL0043,PL,Sveaborg,en,60.1454,24.98814,Q1292442,,2017-07-10,OS,2022-05-03,ReadActor
SP0047,PL0044,PL,La Côte-Saint-André,en,45.393794,5.260022,Q864123,,2017-07-10,OS,2022-06-29,ReadActor
SP0048,PL0045,PL,Shaoxing,en,29.995762,120.586109,Q42666,,2017-07-12,OS,2022-06-29,ReadActor
SP0049,PL0046,PL,Taiyuan,en,37.87059,112.548879,Q72778,,2017-07-12,OS,2022-06-29,ReadActor
SP0050,PL0047,PL,Paris,en,48.856614,2.352222,Q90,,2017-07-12,OS,2022-06-29,ReadActor
SP0051,PL0048,PL,Hamburg,en,53.551085,9.993682,Q1055,,2017-07-12,OS,2022-06-29,ReadActor
SP0052,PL0049,PL,Bradford,en,53.795984,-1.759398,,,2017-07-12,OS,2020-04-05,DP
SP0053,PL0050,PL,New York,en,40.712784,-74.005941,,,2017-07-12,OS,2020-04-05,DP
SP0054,PL0051,PL,Changsha,en,28.228209,112.938814,Q174091,,2017-07-12,OS,2022-06-29,ReadActor
SP0055,PL0052,PL,Miluo,en,28.806394,113.06724,,,2017-07-12,OS,2020-04-05,DP
SP0056,PL0053,PL,Beidahuang,en,45.73722,126.692441,,,2017-07-12,OS,2020-04-05,DP
SP0057,PL0054,PL,Urumqi,en,43.825592,87.616848,Q16959,,2017-07-12,OS,2022-05-03,ReadActor
SP0058,PL0055,PL,Xichang,en,27.894504,102.264449,Q224603,,2017-07-12,OS,2022-06-29,ReadActor
SP0059,PL0056,PL,Jinjiang (Fujian),en,24.781681,118.552365,,,2017-07-18,LH,2020-04-05,DP
SP0060,PL0057,PL,Nizhny Novgorod,en,56.296504,43.936059,Q891,,2017-07-19,LH,2022-06-29,ReadActor
SP0061,PL0058,PL,Saint Petersburg,en,59.93428,30.335099,Q656,,2017-07-18,OS,2022-06-29,ReadActor
SP0062,PL0059,PL,Mojkovac,en,42.960077,19.583587,Q500080,,2017-07-25,MG,2022-06-29,ReadActor
SP0063,PL0060,PL,Changge,en,34.194135,113.819888,Q1062018,,2017-08-01,LH,2022-06-29,ReadActor
SP0064,PL0061,PL,Lufeng,en,23.165614,116.210632,Q1025345,,2017-08-08,MG,2022-05-03,ReadActor
SP0065,PL0062,PL,Yanting,en,31.208363,105.389453,,,2017-08-11,MG,2020-04-05,DP
SP0066,PL0063,PL,Berlin,en,52.52437,13.41053,Q64,,2017-08-15,MG,2022-06-29,ReadActor
SP0067,PL0064,PL,Vietnam,en,14.058324,108.277199,,,2017-08-26,MG,2020-04-05,DP
SP0068,PL0065,PL,Prague,en,50.075538,14.4378,Q1085,,2017-07-19,OS,2022-06-29,ReadActor
SP0069,PL0066,PL,Lowell,en,42.633425,-71.316172,,,2017-07-20,OS,2020-04-05,DP
SP0070,PL0067,PL,Ganzhou,en,25.830694,114.933546,Q363166,,2017-08-31,MG,2022-06-29,ReadActor
SP0071,PL0068,PL,Nuoro,en,40.320242,9.326438,Q13649,,2017-09-06,CW,2022-06-29,ReadActor
SP0072,PL0069,PL,Ningbo,en,29.868336,121.54399,Q42780,,2017-09-06,CW,2022-05-03,ReadActor
SP0073,PL0070,PL,Guangzhou,en,23.128994,113.25325,Q16572,,2017-09-08,MG,2022-06-29,ReadActor
SP0074,PL0071,PL,Thornton,en,53.7833,-1.85,,,2017-09-22,MG,2020-04-05,DP
SP0075,PL0072,PL,Princeton,en,40.3486111,-74.6594444,,,2017-09-22,MG,2020-04-05,DP
SP0076,PL0073,PL,Dréan,en,36.6848,7.7511,Q1924629,,2017-09-22,MG,2022-05-03,ReadActor
SP0077,PL0074,PL,Lanzhou,en,36.061089,103.834303,Q183584,,2017-09-16,CW,2022-06-29,ReadActor
SP0078,PL0075,PL,Gobi Desert,en,42.795154,105.032363,,,2017-09-16,CW,2020-04-05,DP
SP0079,PL0076,PL,Hebei,en,37.895659,114.904221,Q21208,,2017-09-24,CW,2022-06-29,ReadActor
SP0080,PL0077,PL,Luoyang,en,23.16244,114.27342,,,2017-09-26,MG,2020-04-05,DP
SP0081,PL0078,PL,Taganrog,en,47.23617,38.89688,Q170513,,2017-09-27,MG,2022-06-29,ReadActor
SP0082,PL0079,PL,Saratow,en,51.592365,45.960804,,,2017-09-29,MG,2020-04-05,DP
SP0083,PL0080,PL,Shaoshan,en,27.905996376,112.474664768,Q838542,,2017-10-03,MG,2022-06-29,ReadActor
SP0084,PL0081,PL,Huangbei,en,29.758889,118.534167,,,2017-10-03,MG,2020-04-05,DP
SP0085,PL0082,PL,Suzhou,en,31.30408,120.59538,Q42622,,2017-10-03,MG,2022-06-29,ReadActor
SP0086,PL0083,PL,Portsmouth,en,50.819767,-1.087977,,,2017-10-08,MG,2020-04-05,DP
SP0087,PL0084,PL,Abingdon,en,51.67109,-1.28278,,,2017-10-09,MG,2020-04-05,DP
SP0088,PL0085,PL,Shrewsbury,en,52.71009,-2.75208,,,2017-10-09,MG,2020-04-05,DP
SP0089,PL0086,PL,Fondi,en,41.35285,13.43227,Q128084,,2017-10-09,MG,2022-06-29,ReadActor
SP0090,PL0087,PL,Essex,en,51.765907,0.667367,Q23240,,2017-10-09,MG,2022-06-29,ReadActor
SP0091,PL0088,PL,Belgrade,en,44.80401,20.46513,Q3711,,2017-10-09,MG,2022-06-29,ReadActor
SP0092,PL0089,PL,Taipei,en,25.105497,121.597366,,,2017-10-16,MG,2020-04-05,DP
SP0093,PL0090,PL,Nanjing,en,32.06167,118.77778,Q16666,,2017-10-24,MG,2022-06-29,ReadActor
SP0094,PL0091,PL,Hankou,en,30.541831166,114.32583203,Q1208250,,2017-10-24,MG,2022-05-03,ReadActor
SP0095,PL0092,PL,Zhengzhou,en,34.75778,113.64861,Q30340,,2017-10-24,MG,2022-06-29,ReadActor
SP0096,PL0093,PL,Changchun,en,43.892362,125.34072,Q92161,,2017-10-24,MG,2022-06-29,ReadActor
SP0097,PL0094,PL,Ulyanovsk,en,54.32824,48.38657,Q5627,,2017-10-24,MG,2022-06-29,ReadActor
SP0098,PL0095,PL,Trier,en,49.75565,6.63935,Q3138,,2017-10-24,MG,2022-06-29,ReadActor
SP0099,PL0096,PL,Hangzhou,en,29.9978,119.7722,Q4970,,2017-10-30,MG,2022-05-03,ReadActor
SP0100,PL0097,PL,Zhumadian,en,32.97944,114.02944,Q198240,,2017-10-30,MG,2022-06-29,ReadActor
SP0101,PL0098,PL,Qufu,en,35.59667,116.99111,Q210287,,2017-10-30,MG,2022-06-29,ReadActor
SP0102,PL0099,PL,Shangcai,en,33.397216,114.476947,Q1199103,,2017-10-30,MG,2022-06-29,ReadActor
SP0103,PL0100,PL,Jiangsu,en,33.140172,119.788925,Q16963,,2017-11-19,CW,2022-06-29,ReadActor
SP0104,PL0101,PL,Düsseldorf,en,51.227741,6.773456,Q1718,,2017-12-13,MG,2022-05-03,ReadActor
SP0105,PL0102,PL,New Brunswick,en,40.486216,-74.451819,,,2017-12-17,MG,2020-04-05,DP
SP0106,PL0103,PL,Changzhou,en,31.811226,119.974061,Q57970,,2017-12-23,OS,2022-06-29,ReadActor
SP0107,PL0104,PL,Xushui,en,39.018736,115.655774,,,2017-12-19,MG,2020-04-05,DP
SP0108,PL0105,PL,Longkou,en,37.646108,120.477813,Q1207037,,2017-12-23,MG,2022-06-29,ReadActor
SP0109,PL0106,PL,Gori,en,41.985414,44.108411,Q19583,,2017-12-23,OS,2022-06-29,ReadActor
SP0110,PL0107,PL,Yegoryevsk,en,55.385141,39.032322,Q135572,,2017-12-23,OS,2022-06-29,ReadActor
SP0111,PL0108,PL,Yizhen,en,34.203246,108.945896,,,2017-12-29,OS,2020-04-05,DP
SP0112,PL0109,PL,Stanford,en,37.427475,-122.169719,,,2017-12-29,OS,2020-04-05,DP
SP0113,PL0110,PL,Hunan,en,27.6253,111.856859,Q45761,,2018-01-04,MG,2022-06-29,ReadActor
SP0114,PL0111,PL,Inner Mongolia,en,43.37822,115.059481,,,2018-01-04,MG,2020-04-05,DP
SP0115,PL0112,PL,Guizhou,en,26.842965,107.290284,Q47097,,2018-01-04,MG,2022-06-29,ReadActor
SP0116,PL0113,PL,Yichang,en,30.691966,111.286471,Q71266,,2018-01-03,OS,2022-06-29,ReadActor
SP0117,PL0114,PL,Berkeley,en,37.871899,-122.25854,,,2018-01-10,MG,2020-04-05,DP
SP0118,PL0115,PL,Xixian,en,32.342792,114.740456,,,2018-01-10,MG,2020-04-05,DP
SP0119,PL0116,PL,Yizheng,en,32.272258,119.184766,Q1375588,,2018-01-16,MG,2022-06-29,ReadActor
SP0120,PL0118,PL,Tieling,en,42.223828,123.726035,Q75268,,2018-02-06,OS,2022-06-29,ReadActor
SP0121,PL0119,PL,Villers-Cotterêts,en,49.255061,3.090816,Q213883,,2018-02-06,OS,2022-06-29,ReadActor
SP0122,PL0120,PL,Brussels,en,50.850346,4.351721,Q239,,2018-02-06,OS,2022-06-29,ReadActor
SP0123,PL0121,PL,Edinburgh,en,55.953252,-3.188267,,,2018-02-05,OS,2020-04-05,DP
SP0124,PL0122,PL,Kovachevtsi,en,42.559002,22.817838,Q1375652,,2018-02-05,OS,2022-06-29,ReadActor
SP0125,PL0123,PL,Cork,en,51.896892,-8.486316,,,2018-02-03,OS,2020-04-05,DP
SP0126,PL0124,PL,Kalinovka,en,51.893853,34.509259,,,2018-02-01,OS,2020-04-05,DP
SP0127,PL0125,PL,Kislowodsk,en,43.905601,42.728095,Q153676,,2018-02-01,OS,2022-05-03,ReadActor
SP0128,PL0126,PL,Budapest,en,47.497912,19.040235,Q1781,,2018-02-01,OS,2022-06-29,ReadActor
SP0129,PL0127,PL,Kumrovec,en,46.076437,15.680309,Q696051,,2018-02-01,OS,2022-06-29,ReadActor
SP0130,PL0128,PL,Bereslavka,en,47.89197,32.293262,Q753652,,2018-02-01,OS,2022-06-29,ReadActor
SP0131,PL0129,PL,Xingtai,en,37.070834,114.504677,Q58576,,2018-02-01,OS,2022-05-03,ReadActor
SP0132,PL0130,PL,Linhe,en,40.751187,107.363918,,,2018-02-01,OS,2020-04-05,DP
SP0133,PL0131,PL,Shanghexi,en,39.4065,112.9054,,,2018-02-06,OS,2020-04-05,DP
SP0134,PL0132,PL,Liverpool,en,53.408371,-2.991573,,,2018-01-30,OS,2020-04-05,DP
SP0135,PL0133,PL,Zhangjiakou,en,40.767544,114.886335,Q58650,,2018-01-09,OS,2022-06-29,ReadActor
SP0136,PL0134,PL,Leshan,en,29.552115,103.765678,Q426868,,2018-01-09,OS,2022-06-29,ReadActor
SP0137,PL0135,PL,Henan,en,34.29043,113.382355,Q43684,,2018-01-10,OS,2022-06-29,ReadActor
SP0138,PL0136,PL,Guangdong,en,23.379033,113.763283,Q15175,,2018-01-10,OS,2022-06-29,ReadActor
SP0139,PL0137,PL,Chaocheng,en,36.05627,115.590164,Q11092516,,2018-01-12,OS,2022-05-03,ReadActor
SP0140,PL0138,PL,Fenyang,en,37.261564,111.769893,Q929190,,2018-01-12,OS,2022-06-29,ReadActor
SP0141,PL0139,PL,Xibaipo,en,38.351264,113.940554,Q3373621,,2018-01-18,OS,2022-05-03,ReadActor
SP0142,PL0140,PL,Chadian,en,39.262324,117.805932,,,2018-01-18,OS,2020-04-05,DP
SP0143,PL0141,PL,Taigu,en,37.421307,112.551305,,,2018-01-18,OS,2020-04-05,DP
SP0144,PL0142,PL,Kiev,en,50.4501,30.5234,Q1899,,2018-01-23,OS,2022-05-03,ReadActor
SP0145,PL0143,PL,St. Louis,en,38.627003,-90.199404,,,2018-01-24,OS,2020-04-05,DP
SP0146,PL0144,PL,Saint Denis,en,48.936181,2.357443,Q160506,,2018-01-24,OS,2022-05-03,ReadActor
SP0147,PL0145,PL,Wuppertal,en,51.256213,7.150764,Q2107,,2018-01-24,OS,2022-06-29,ReadActor
SP0148,PL0146,PL,Haicheng,en,40.882377,122.685217,Q1011073,,2018-01-25,OS,2022-06-29,ReadActor
SP0149,PL0147,PL,Dalian,en,38.920833,121.639167,Q74881,,2018-01-26,WH,2022-06-29,ReadActor
SP0150,PL0148,PL,Xinyang,en,32.1472,114.0903,Q404873,,2018-01-26,WH,2022-06-29,ReadActor
SP0151,PL0149,PL,Zhongxian,en,30.355948,107.83845,,,2018-02-06,WH,2020-04-05,DP
SP0152,PL0150,PL,Guzhen,en,33.284159,117.335383,Q1334688,,2018-02-06,WH,2022-06-29,ReadActor
SP0153,PL0151,PL,Jiutai,en,44.135246,125.977127,Q1015907,,2018-02-06,WH,2022-05-03,ReadActor
SP0154,PL0152,PL,Linyi,en,35.104673,118.356414,Q373346,,2018-02-08,OS,2022-06-29,ReadActor
SP0155,PL0153,PL,Jinan,en,36.633333,117.016667,Q170247,,2018-02-07,WH,2022-06-29,ReadActor
SP0156,PL0154,PL,Suibin Nongchang,en,47.523305,131.69029,,,2018-02-07,WH,2020-04-05,DP
SP0157,PL0155,PL,Baishiyi,en,29.487869,106.367617,Q3275058,,2018-02-07,WH,2022-06-29,ReadActor
SP0158,PL0156,PL,Wafangdian,en,39.627114,121.979603,Q616048,,2018-02-11,OS,2022-06-29,ReadActor
SP0159,PL0157,PL,Marseille,en,43.296482,5.36978,Q23482,,2018-02-11,OS,2022-06-29,ReadActor
SP0160,PL0158,PL,Berkhamsted,en,51.759766,-0.567857,,,2018-02-12,OS,2020-04-05,DP
SP0161,PL0159,PL,Jimo,en,36.389401,120.44716,,,2018-02-13,OS,2020-04-05,DP
SP0162,PL0160,PL,Hanau,en,50.126412,8.92831,Q3802,,2018-02-13,OS,2022-06-29,ReadActor
SP0163,PL0161,PL,Yuncheng,en,35.026516,111.00746,Q73073,,2018-02-13,OS,2022-06-29,ReadActor
SP0164,PL0162,PL,Viliya,en,50.193612,26.260522,,,2018-02-13,OS,2020-04-05,DP
SP0165,PL0163,PL,Yiyang,en,28.55386,112.35518,Q416669,,2018-02-13,OS,2022-06-29,ReadActor
SP0166,PL0164,PL,Rosario,en,-32.944243,-60.650539,,,2018-02-13,OS,2020-04-05,DP
SP0167,PL0165,PL,Fengshan,en,41.208899,116.645932,,,2018-02-13,OS,2020-04-05,DP
SP0168,PL0166,PL,Salem,en,42.51954,-70.896716,,,2018-02-14,OS,2020-04-05,DP
SP0169,PL0167,PL,Vienna,en,48.208174,16.373819,Q1741,,2018-02-14,OS,2022-06-29,ReadActor
SP0170,PL0168,PL,Zaozhuang,en,34.773263,117.590815,Q147187,,2018-02-14,OS,2022-06-29,ReadActor
SP0171,PL0169,PL,Wanxian,en,30.807667,108.408661,,,2018-02-14,OS,2020-04-05,DP
SP0172,PL0170,PL,Stuttgart,en,48.775846,9.182932,Q1022,,2018-02-14,OS,2022-06-29,ReadActor
SP0173,PL0171,PL,Oak Park,en,41.885032,-87.784503,,,2018-02-14,OS,2020-04-05,DP
SP0174,PL0172,PL,Besançon,en,47.237829,6.024054,Q37776,,2018-02-15,OS,2022-06-29,ReadActor
SP0175,PL0173,PL,Slatina,en,45.701932,17.701144,,,2018-02-15,OS,2020-04-05,DP
SP0176,PL0174,PL,Sevastopol,en,44.61665,33.525367,Q7525,,2018-02-16,OS,2022-06-29,ReadActor
SP0177,PL0175,PL,Mangyongdae,en,38.996738,125.656018,Q1142667,,2018-02-16,OS,2022-06-29,ReadActor
SP0178,PL0176,PL,Montreal,en,45.501689,-73.567256,,,2018-02-16,OS,2020-04-05,DP
SP0179,PL0177,PL,Veliky Novgorod,en,58.52557,31.274193,Q2235,,2018-02-19,OS,2022-06-29,ReadActor
SP0180,PL0178,PL,Osino-Gay,en,53.037391,42.402225,,,2018-02-19,OS,2020-04-05,DP
SP0181,PL0179,PL,Dnipro,en,48.464717,35.046183,Q48256,,2018-02-19,OS,2022-06-29,ReadActor
SP0182,PL0180,PL,Kherson,en,46.635417,32.616867,Q156732,,2018-02-19,OS,2022-06-29,ReadActor
SP0183,PL0181,PL,Wuxi,en,31.491169,120.31191,Q42651,,2018-02-27,OS,2022-06-29,ReadActor
SP0184,PL0182,PL,Xi'an,en,34.341574,108.93977,Q5826,,2018-02-27,OS,2022-06-29,ReadActor
SP0185,PL0183,PL,Zhuozhou,en,39.485282,115.974422,Q198244,,2018-02-27,OS,2022-06-29,ReadActor
SP0186,PL0184,PL,Xuchang,en,34.035771,113.852454,Q404529,,2018-02-28,OS,2022-06-29,ReadActor
SP0187,PL0185,PL,Wuhan,en,30.583333,114.316667,Q11746,,2018-03-13,WH,2022-06-29,ReadActor
SP0188,PL0186,PL,Kalimpon,en,27.06,88.47,Q500877,,2018-03-13,WH,2022-06-29,ReadActor
SP0189,PL0187,PL,Changling,en,44.274527,123.976973,,,2018-03-13,WH,2020-04-05,DP
SP0190,PL0188,PL,Zhongjiang,en,31.037084,104.679891,,,2018-03-13,WH,2020-04-05,DP
SP0191,PL0189,PL,Ji’an,en,27.0875,114.9645,Q363262,,2018-03-13,WH,2022-05-03,ReadActor
SP0192,PL0190,PL,Zhanhai,en,29.95481,121.70961,,,2018-03-13,WH,2020-04-05,DP
SP0193,PL0191,PL,Nantong,en,32.01456,120.84451,Q57947,,2018-03-13,WH,2022-06-29,ReadActor
SP0194,PL0192,PL,Chifeng,en,42.2579,118.94804,Q570829,,2018-03-13,WH,2022-06-29,ReadActor
SP0195,PL0193,PL,Anyang,en,36.0973,114.3922,Q324293,,2018-03-13,WH,2022-06-29,ReadActor
SP0196,PL0194,PL,Dunhua,en,43.402157,127.991883,Q713307,,2018-03-13,WH,2022-06-29,ReadActor
SP0197,PL0195,PL,Wrocław,en,51.107778,17.038333,Q1799,,2018-03-13,WH,2022-06-29,ReadActor
SP0198,PL0196,PL,Certaldo,en,43.547778,11.041111,Q82646,,2018-03-13,WH,2022-06-29,ReadActor
SP0199,PL0197,PL,Bakhmut,en,48.591389,38.080556,Q706857,,2018-03-13,WH,2022-06-29,ReadActor
SP0200,PL0198,PL,Chenzhou,en,25.7706,113.0145,Q416748,,2018-03-13,WH,2022-06-29,ReadActor
SP0201,PL0199,PL,Fenghuang,en,27.948308,109.599191,,,2018-03-06,MG,2020-04-05,DP
SP0202,PL0200,PL,Yangzhou,en,32.394209,119.412939,Q57906,,2018-03-06,MG,2022-06-29,ReadActor
SP0203,PL0201,PL,Nanzhang,en,31.774635,111.838905,,,2018-03-06,MG,2020-04-05,DP
SP0204,PL0202,PL,Porbandar,en,21.641707,69.629265,Q6419912,,2018-03-12,MG,2022-06-29,ReadActor
SP0205,PL0203,PL,Grenoble,en,45.188529,5.724524,Q1289,,2018-03-12,MG,2022-06-29,ReadActor
SP0206,PL0204,PL,Lianshui,en,33.781331,119.260227,,,2018-03-13,MG,2020-04-05,DP
SP0207,PL0205,PL,Xiangchuan,en,28.515646,112.134533,,,2018-03-13,MG,2020-04-05,DP
SP0208,PL0206,PL,Manchester,en,53.480759,-2.242631,,,2018-03-13,MG,2020-04-05,DP
SP0209,PL0207,PL,Kempen,en,51.364994,6.420531,Q14929,,2018-03-14,MG,2022-06-29,ReadActor
SP0210,PL0208,PL,Linli,en,29.440793,111.647517,,,2018-03-17,WH,2020-04-05,DP
SP0211,PL0209,PL,Terre Haute,en,39.469722,-87.389722,,,2018-03-28,WH,2020-04-05,DP
SP0212,PL0210,PL,Gongyi,en,34.755275,113.008664,Q1359997,,2018-03-28,WH,2022-06-29,ReadActor
SP0213,PL0211,PL,Hancheng,en,35.466667,110.433333,Q577415,,2018-03-28,WH,2022-06-29,ReadActor
SP0214,PL0227,PL,Yanchuan,en,36.878117,110.193514,Q1201433,,2018-03-21,MG,2022-06-29,ReadActor
SP0215,PL0228,PL,Penglai,en,37.810661,120.758848,,,2018-03-21,MG,2020-04-05,DP
SP0216,PL0229,PL,Yasnaya Polyana,en,54.069504,37.523205,Q749556,,2018-03-21,MG,2022-05-03,ReadActor
SP0217,PL0230,PL,Welyki Sorotschynzi,en,50.019808,33.941673,Q1666449,,2018-03-21,MG,2022-05-03,ReadActor
SP0218,PL0231,PL,Votkinsk,en,57.040944,53.97693,Q133838,,2018-03-23,MG,2022-06-29,ReadActor
SP0219,PL0232,PL,Zhuji,en,29.708692,120.246863,Q198222,,2018-03-23,MG,2022-06-29,ReadActor
SP0220,PL0233,PL,Kansas City,en,39.099727,-94.578567,,,2018-03-29,MG,2020-04-05,DP
SP0221,PL0234,PL,Portland,en,45.523062,-122.676482,,,2018-03-29,MG,2020-04-05,DP
SP0222,PL0235,PL,Kimry,en,56.860398,37.359892,Q146435,,2018-03-29,MG,2022-06-29,ReadActor
SP0223,PL0236,PL,Ghent,en,51.054342,3.717424,Q1296,,2018-04-03,MG,2022-06-29,ReadActor
SP0224,PL0237,PL,Lille,en,50.62925,3.057256,Q648,,2018-04-03,MG,2022-06-29,ReadActor
SP0225,PL0238,PL,Washington D.C.,en,38.907192,-77.036871,,,2018-04-03,MG,2020-04-05,DP
SP0226,PL0239,PL,Anhui,en,30.600677,117.9249,,,2018-04-03,MG,2020-04-05,DP
SP0227,PL0240,PL,Frankfurt,en,50.110922,8.682127,,,2018-04-03,MG,2020-04-05,DP
SP0228,PL0241,PL,Hainan,en,19.566395,109.949686,Q42200,,2018-04-03,MG,2022-06-29,ReadActor
SP0229,PL0242,PL,Příbor,en,49.640936,18.144996,Q654019,,2018-04-03,MG,2022-06-29,ReadActor
SP0230,PL0243,PL,Croydon,en,51.376165,-0.098234,Q26888,,2018-04-05,MG,2022-06-29,ReadActor
SP0231,PL0244,PL,Stratford-upon-Avon,en,52.19173,-1.708298,,,2018-04-06,MG,2020-04-05,DP
SP0232,PL0245,PL,Kingston upon Thames,en,51.41233,-0.300689,Q32508,,2018-04-06,MG,2022-06-29,ReadActor
SP0233,PL0246,PL,Rouen,en,49.443232,1.099971,Q30974,,2018-04-06,MG,2022-06-29,ReadActor
SP0234,PL0247,PL,Tourville-sur-Arques,en,49.858616,1.095163,Q629137,,2018-04-06,MG,2022-06-29,ReadActor
SP0235,PL0248,PL,Calcutta,en,22.572646,88.363895,Q1348,,2018-04-09,MG,2022-05-03,ReadActor
SP0236,PL0249,PL,Novospasovka,en,48.911471,40.456788,Q4325574,,2018-05-08,MG,2022-06-29,ReadActor
SP0237,PL0250,PL,Lamar,en,37.495048,-94.276615,,,2018-05-08,MG,2020-04-05,DP
SP0238,PL0251,PL,Hannibal,en,36.151664,-95.991926,,,2018-05-08,MG,2020-04-05,DP
SP0239,PL0252,PL,Linchuan,en,27.934572,116.312166,,,2018-05-08,MG,2020-04-05,DP
SP0240,PL0253,PL,Jiujiang,en,29.705077,116.00193,Q216077,,2018-05-14,MG,2022-06-29,ReadActor
SP0241,PL0254,PL,Sète,en,43.407876,3.700822,Q191141,,2018-05-15,MG,2022-06-29,ReadActor
SP0242,PL0255,PL,Groot-Zundert,en,51.469834,4.654992,,,2018-05-15,MG,2020-04-05,DP
SP0243,PL0256,PL,Metz,en,49.119309,6.175716,Q22690,,2018-05-15,MG,2022-06-29,ReadActor
SP0244,PL0257,PL,Nantes,en,47.218371,-1.553621,,,2018-05-15,MG,2020-04-05,DP
SP0245,PL0258,PL,Trmanje,en,42.647545,19.344489,Q3539772,,2018-05-15,MG,2022-05-03,ReadActor
SP0246,PL0259,PL,Ramsgate,en,51.335545,1.419895,Q736439,,2018-05-17,MG,2022-06-29,ReadActor
SP0247,PL0260,PL,Konstantinovo,en,54.861476,39.601857,,,2018-05-17,MG,2020-04-05,DP
SP0248,PL0261,PL,Zima (Siberia),en,53.922585,102.042387,,,2018-05-17,MG,2020-04-05,DP
SP0249,PL0262,PL,Strelkovka,en,55.002389,36731.0,,,2018-05-22,MG,2020-04-05,DP
SP0250,PL0263,PL,Plzeň,en,49.738431,13.373637,Q43453,,2018-05-22,MG,2022-06-29,ReadActor
SP0251,PL0264,PL,Štramberk,en,49.591805,18.117421,Q392466,,2018-05-22,MG,2022-06-29,ReadActor
SP0252,PL0265,PL,Guiyang,en,26.647661,106.630153,Q192271,,2018-05-22,MG,2022-06-29,ReadActor
SP0253,PL0266,PL,Zibo,en,36.813546,118.055019,Q198370,,2018-06-04,MG,2022-06-29,ReadActor
SP0254,PL0267,PL,Tupelo,en,34.257607,-88.703386,,,2018-06-04,MG,2020-04-05,DP
SP0255,PL0268,PL,Hailey,en,43.519629,-114.315324,,,2018-06-05,MG,2020-04-05,DP
SP0256,PL0269,PL,Boston,en,42.360082,-71.05888,,,2018-06-05,MG,2020-04-05,DP
SP0257,PL0270,PL,Gudalovka,en,49.307427,19.937017,,,2018-06-05,MG,2020-04-05,DP
SP0258,PL0271,PL,Zhytomyr,en,50.25465,28.658667,Q156713,,2018-06-05,MG,2022-06-29,ReadActor
SP0259,PL0272,PL,Athens,en,37.98381,23.727539,Q1524,,2018-06-06,MG,2022-06-29,ReadActor
SP0260,PL0273,PL,St. Thomas,en,18.338096,-64.894095,,,2018-06-11,MG,2020-04-05,DP
SP0261,PL0274,PL,Málaga,en,36.721274,-4.421399,,,2018-06-11,MG,2020-04-05,DP
SP0262,PL0275,PL,Guilin,en,25.234479,110.179953,Q189633,,2018-06-11,MG,2022-06-29,ReadActor
SP0263,PL0276,PL,Genoa,en,44.40565,8.946256,Q1449,,2018-06-11,MG,2022-06-29,ReadActor
SP0264,PL0277,PL,Kaliningrad,en,54.710426,20.452214,Q1829,,2018-06-12,MG,2022-06-29,ReadActor
SP0265,PL0278,PL,Peshawar,en,34.015137,71.524915,Q1113311,,2018-06-12,MG,2022-06-29,ReadActor
SP0266,PL0279,PL,Engels,en,51.47533,46.113677,Q198748,,2018-06-12,MG,2022-06-29,ReadActor
SP0267,PL0280,PL,Wangcheng,en,28.353912,112.833836,,,2018-06-19,MG,2020-04-05,DP
SP0268,PL0281,PL,Albany NY,en,42.652579,-73.756232,,,2018-06-19,MG,2020-04-05,DP
SP0269,PL0282,PL,Fuente Vaqueros,en,37.219244,-3.783402,,,2018-06-28,MG,2020-04-05,DP
SP0270,PL0283,PL,Stockholm,en,59.329323,18.068581,Q1754,,2018-07-03,MG,2022-06-29,ReadActor
SP0271,PL0284,PL,Parral,en,-36.140648,-71.822753,,,2018-07-04,MG,2020-04-05,DP
SP0272,PL0285,PL,Röcken,en,51.241535,12.116507,,,2018-07-04,MG,2020-04-05,DP
SP0273,PL0286,PL,Osnabrück,en,52.279911,8.047179,Q2916,,2018-05-28,MG,2022-06-29,ReadActor
SP0274,PL0287,PL,Limoges,en,45.833619,1.261105,Q45656,,2018-05-28,MG,2022-06-29,ReadActor
SP0275,PL0288,PL,Chuguyev,en,49.836316,36.681312,Q889618,,2018-05-28,MG,2022-05-03,ReadActor
SP0276,PL0289,PL,Charleville,en,49.762085,4.726096,,,2018-05-28,MG,2020-04-05,DP
SP0277,PL0290,PL,Tikhvin,en,59.644386,33.541032,Q15336,,2018-05-28,MG,2022-06-29,ReadActor
SP0278,PL0291,PL,Clamecy,en,47.459605,3.518769,Q213294,,2018-05-28,MG,2022-06-29,ReadActor
SP0279,PL0292,PL,Irkutsk,en,52.286974,104.305018,Q6576,,2018-05-30,MG,2022-06-29,ReadActor
SP0280,PL0293,PL,Heidenheim,en,48.689396,10.161095,Q548982,,2018-06-01,MG,2022-06-29,ReadActor
SP0281,PL0294,PL,Geneva,en,46.204391,6.143158,Q71,,2018-06-01,MG,2022-06-29,ReadActor
SP0282,PL0295,PL,Monmouthshire,en,51.81161,-2.716342,,,2018-06-01,MG,2020-04-05,DP
SP0283,PL0296,PL,Nemyriv,en,48.974952,28.847408,Q997335,,2018-07-04,MG,2022-06-29,ReadActor
SP0284,PL0297,PL,Bilopillia,en,51.149402,34.317522,Q591896,,2018-07-09,MG,2022-06-29,ReadActor
SP0285,PL0298,PL,Kunming,en,24.880095,102.832891,Q182852,,2018-07-10,MG,2022-06-29,ReadActor
SP0286,PL0299,PL,La Bruyère,en,50.527995,4.818628,,,2018-07-17,MG,2020-04-05,DP
SP0287,PL0300,PL,Dong'an,en,26.394403,111.314117,,,2018-07-30,MG,2020-04-05,DP
SP0288,PL0301,PL,Slawno,en,54.36262,16.67836,Q161967,,2018-07-17,MG,2022-05-03,ReadActor
SP0289,PL0302,PL,Zoucheng,en,35.405184,117.003743,Q227034,,2018-07-20,MG,2022-06-29,ReadActor
SP0290,PL0303,PL,Zavosse,en,53.289514,26.099846,Q3493620,,2018-07-20,MG,2022-05-03,ReadActor
SP0291,PL0304,PL,Atlanta,en,33.748995,-84.387982,,,2018-07-20,MG,2020-04-05,DP
SP0292,PL0305,PL,La Brède,en,44.68148,-0.527753,,,2018-07-23,MG,2020-04-05,DP
SP0293,PL0306,PL,Leipzig,en,51.3397,12.3731,Q2079,,2018-05-31,DM,2022-06-29,ReadActor
SP0294,PL0307,PL,Linares,en,38.083333,-3.633333,,,2018-05-31,DM,2020-04-05,DP
SP0295,PL0308,PL,Horsham,en,51.063751,-0.327,Q177544,,2018-05-31,DM,2022-06-29,ReadActor
SP0296,PL0309,PL,Huzhou,en,30.87232,120.098053,Q42664,It’s old name was Wuxing.,2018-06-01,DM,2022-06-29,ReadActor
SP0297,PL0310,PL,Jiangxi Province,en,27.28597,116.01609,,,2018-06-01,DM,2020-04-05,DP
SP0298,PL0311,PL,Guilin,en,25.2344,110.1799,Q189633,,2018-06-01,DM,2022-06-29,ReadActor
SP0299,PL0312,PL,Chicago,en,41.8781,87.6298,Q1297,,2018-08-06,DM,2022-05-03,ReadActor
SP0300,PL0313,PL,Vyoshenskaya,en,49.6316,41.7147,Q2637584,,2018-08-06,DM,2022-05-03,ReadActor
SP0301,PL0314,PL,Hejin,en,35.596,110.712,Q769598,,2018-11-15,DM,2022-06-29,ReadActor
SP0302,PL0315,PL,Litomyšl,en,49.87,16.312778,Q722732,,2018-11-17,DM,2022-06-29,ReadActor
SP0303,PL0316,PL,Haining,en,30.5107,120.6808,,,2019-01-07,DM,2020-04-05,DP
SP0304,PL0317,PL,Blankenburg,en,51.8164,10.9773,Q525960,,2019-01-08,DM,2022-06-29,ReadActor
SP0305,PL0318,PL,Salinas,en,36.6777,121.6555,Q488125,,2019-01-08,DM,2022-05-03,ReadActor
SP0306,PL0319,PL,Letychiv,en,49.385,27.6242,Q2431181,,2019-01-08,DM,2022-06-29,ReadActor
SP0307,PL0320,PL,Friend,en,40.6536,97.2862,,,2019-01-08,DM,2020-04-05,DP
SP0308,PL0321,PL,Dobrush,en,52.388249,31.342155,Q955474,,2018-05-31,DM,2022-06-29,ReadActor
SP0309,PL0322,PL,Pamplona,en,42.81687,-1.64323,,,2018-05-31,DM,2020-04-05,DP
SP0310,PL0323,PL,Lviv,en,49.83826,24.02324,Q36036,,2018-05-31,DM,2022-06-29,ReadActor
SP0311,PL0324,PL,Marbach am Necker,en,48.9396,9.2646,,,2018-05-31,DM,2020-04-05,DP
SP0312,PL0325,PL,Tokyo,en,35.6895,139.6917,Q1490,,2018-05-31,DM,2022-06-29,ReadActor
SP0313,PL0326,PL,Meishan,en,30.0773,103.8484,Q427097,,2019-01-08,DM,2022-06-29,ReadActor
SP0314,PL0327,PL,Krasnoyarsk,en,56.0153,92.8932,Q919,,2019-01-08,DM,2022-06-29,ReadActor
SP0315,PL0328,PL,Shakhovskoye,en,52.625833,47.268611,Q4521321,,2019-01-08,DM,2022-06-29,ReadActor
SP0316,PL0351,PL,Milan (OH),en,41.293333,-82.601389,,,2018-04-26,WH,2020-04-05,DP
SP0317,PL0352,PL,Jianyang,en,30.24,104.32,,,2018-05-03,WH,2020-04-05,DP
SP0318,PL0353,PL,Leiden,en,52.166667,4.483333,Q43631,,2018-06-21,WH,2022-06-29,ReadActor
SP0319,PL0354,PL,Mengzhou,en,34.907315,112.791401,Q1198787,,2018-06-21,WH,2022-06-29,ReadActor
SP0320,PL0355,PL,Yuyao,en,30.037192,121.154634,,,2018-07-09,WH,2020-04-05,DP
SP0321,PL0356,PL,Chuansha Xian,en,31.301395,121.516652,,,2018-07-09,WH,2020-04-05,DP
SP0322,PL0357,PL,Nanchang,en,28.682892,115.858197,Q171943,,2018-07-10,WH,2022-06-29,ReadActor
SP0323,PL0358,PL,Sichuan Second Prison,en,29.58921,106.538559,,The Sichuan Second Prison is now called Chongqing City Prison. PS00409,2018-08-15,WH,2020-04-05,DP
SP0324,PL0359,PL,Heishan,en,41.666028,122.123443,Q11179047,,2018-01-26,OS,2022-06-29,ReadActor
SP0325,PL0400,PL,Pingyao,en,37.154444,112.143472,Q500061,,2018-03-13,WH,2022-06-29,ReadActor
SP0326,PL0401,PL,Skien,en,59.2086,9.60979,Q2272,,2018-08-16,MG,2022-06-29,ReadActor
SP0327,PL0402,PL,Ann Arbor,en,42.280827,-83.743034,,,2018-10-16,LH,2020-04-05,DP
SP0328,PL0403,PL,Milano,en,45.46362,9.18812,Q490,,2018-10-19,MG,2022-05-03,ReadActor
SP0329,PL0404,PL,Leipzig,en,51.339695,12.373075,Q2079,,2018-10-26,MG,2022-06-29,ReadActor
SP0330,PL0405,PL,Zamość,en,50.717369,23.25276,Q145972,,2018-10-26,MG,2022-06-29,ReadActor
SP0331,PL0406,PL,Laoting,en,22.88778,120.46356,,,2018-10-26,MG,2020-04-05,DP
SP0332,PL0407,PL,Pingchang,en,22.61822,120.56601,,,2018-10-26,MG,2020-04-05,DP
SP0333,PL0408,PL,Weddern,en,51.86854,7.30796,Q47200394,,2018-10-26,MG,2022-06-29,ReadActor
SP0334,PL0409,PL,Gallarta,en,43.32084,-3.07258,,,2018-10-26,MG,2020-04-05,DP
SP0335,PL0410,PL,Shuiyuan county,en,23.84967,110.40083,,,2018-11-01,MG,2020-04-05,DP
SP0336,PL0411,PL,Ostrogozhsk,en,50.86079,39.0827,Q177737,,2018-11-01,MG,2022-06-29,ReadActor
SP0337,PL0412,PL,Voronezh,en,51.675495,39.208881,Q3426,,2018-11-06,MG,2022-06-29,ReadActor
SP0338,PL0413,PL,Caprese,en,43.64096,11.98596,,,2018-11-06,MG,2020-04-05,DP
SP0339,PL0414,PL,Alloway,en,55.43109,-4.6331,,,2018-11-06,MG,2020-04-05,DP
SP0340,PL0415,PL,Hubei,en,37.59857,114.60758,,,2018-11-09,MG,2020-04-05,DP
SP0341,PL0416,PL,Warszawa,en,52.229675,21.01223,Q270,,2018-11-09,MG,2022-05-03,ReadActor
SP0342,PL0417,PL,Pescasseroli,en,41.80825,13.78958,Q50121,,2018-11-09,MG,2022-06-29,ReadActor
SP0343,PL0418,PL,Vinci,en,43.77985,10.92344,,,2018-11-14,MG,2020-04-05,DP
SP0344,PL0419,PL,Saint-Germain-en-Laye,en,48.89875,2.09359,Q60847808,,2018-11-18,MG,2022-06-29,ReadActor
SP0345,PL0420,PL,Baozhong Township,en,23.69329,120.30849,,,2018-11-19,MG,2020-04-05,DP
SP0346,PL0421,PL,Salamis Island,en,37.96421,23.49645,Q202422,,2018-11-21,MG,2022-05-03,ReadActor
SP0347,PL0422,PL,Eleusis,en,38.043228,23.54212,Q204905,,2018-11-21,MG,2022-05-03,ReadActor
SP0348,PL0423,PL,Yangjiang,en,21.857958,111.982231,Q59209,,2018-11-21,MG,2022-06-29,ReadActor
SP0349,PL0424,PL,Mâcon,en,46.303669,4.832227,Q174247,,2018-11-27,MG,2022-06-29,ReadActor
SP0350,PL0425,PL,Coventry,en,52.406822,-1.519693,,,2018-11-27,MG,2020-04-05,DP
SP0351,PL0426,PL,Kybartai,en,54.642544,22.751174,Q1004295,,2018-11-27,MG,2022-06-29,ReadActor
SP0352,PL0427,PL,Tangshan,en,39.630867,118.180191,Q58422,,2018-11-27,MG,2022-06-29,ReadActor
SP0353,PL0428,PL,Banzai,en,25.92448,118.27899,,,2018-12-06,MG,2020-04-05,DP
SP0354,PL0429,PL,Tailai,en,46.390362,123.409981,,,2018-12-06,MG,2020-04-05,DP
SP0355,PL0430,PL,Jiangyin,en,31.920658,120.284935,Q1015823,,2018-12-11,MG,2022-06-29,ReadActor
SP0356,PL0431,PL,Wuyishan,en,27.756647,118.035309,Q207692,,2018-12-11,MG,2022-06-29,ReadActor
SP0357,PL0432,PL,San Fransisco,en,37.774929,-122.419418,,,2018-12-11,MG,2020-04-05,DP
SP0358,PL0433,PL,Wanzai,en,22.91387,120.33538,,,2018-12-11,MG,2020-04-05,DP
SP0359,PL0434,PL,Rugao,en,22.74024,120.49042,,,2018-12-11,MG,2020-04-05,DP
SP0360,PL0435,PL,Tschita,en,52.03861,113.50425,,,2018-12-15,MG,2020-04-05,DP
SP0361,PL0436,PL,Livorno,en,43.551891,10.30784,Q6761,,2018-12-17,MG,2022-06-29,ReadActor
SP0362,PL0437,PL,Lavaur,en,43.698792,1.81501,Q514994,,2018-12-17,MG,2022-06-29,ReadActor
SP0363,PL0438,PL,Brno,en,49.195061,16.606836,Q14960,,2018-12-30,MG,2022-06-29,ReadActor
SP0364,PL0439,PL,Lutsk,en,50.747234,25.325382,Q7550,,2018-12-30,MG,2022-06-29,ReadActor
SP0365,PL0440,PL,Gerasimovka,en,52.70488,51.50281,,,2018-12-30,MG,2020-04-05,DP
SP0366,PL0441,PL,Ulm,en,48.39962,9.99661,Q3012,,2019-01-08,MG,2022-06-29,ReadActor
SP0367,PL0442,PL,Zhongxiang,en,31.16368,112.57924,Q197919,,2019-02-11,MG,2022-06-29,ReadActor
SP0368,PL0443,PL,Iserlohn,en,51.372971,7.69951,Q1130,,2019-02-18,MG,2022-06-29,ReadActor
SP0369,PL0444,PL,Baku,en,40.409264,49.867092,Q9248,,2019-02-19,MG,2022-06-29,ReadActor
SP0370,PL0445,PL,Gaoyou,en,32.77938,119.43173,Q1253949,,2019-03-08,MG,2022-06-29,ReadActor
SP0371,PL0446,PL,Swansea,en,51.621578,-3.94337,,,2019-03-09,MG,2020-04-05,DP
SP0372,PL0500,PL,Коsа (Kosinsky District),en,59.94537,54.99187,,,2018-11-04,WH,2020-04-05,DP
SP0373,PL0501,PL,Liling,en,27.65008,113.492325,Q604609,,2018-11-04,WH,2022-06-29,ReadActor
SP0374,PL0502,PL,Pucheng (Shaanxi),en,34.957,109.58,,,2018-11-04,WH,2020-04-05,DP
SP0375,PL0503,PL,Hubei,en,30.737812,112.238403,Q46862,,2018-11-04,WH,2022-06-29,ReadActor
SP0376,PL0504,PL,Lliulin (Shanxi),en,37.430833,110.889167,,,2018-11-04,WH,2020-04-05,DP
SP0377,PL0505,PL,Shanxi,en,37.242565,111.856857,Q46913,,2018-11-04,WH,2022-06-29,ReadActor
SP0378,PL0506,PL,Yuxi,en,24.3473,102.5272,Q496496,,2018-11-04,WH,2022-06-29,ReadActor
SP0379,PL0507,PL,Xiaxian,en,35.138333,111.220833,,,2018-11-04,WH,2020-04-05,DP
SP0380,PL0508,PL,Gao’an,en,28.441,115.361,Q1229428,,2018-11-04,WH,2022-05-03,ReadActor
SP0381,PL0509,PL,Jiangxi,en,27.087456,114.904221,,,2018-11-04,WH,2020-04-05,DP
SP0382,PL0510,PL,Wuhe,en,33.128,117.879,,,2018-11-06,WH,2020-04-05,DP
SP0383,PL0511,PL,Shanyin,en,39.5262,112.817,,,2018-11-06,WH,2020-04-05,DP
SP0384,PL0512,PL,Xiangtan,en,27.7801,112.9506,Q215755,,2018-11-06,WH,2022-06-29,ReadActor
SP0385,PL0513,PL,Yunlin,en,23.70489,120.47607,Q153221,,2018-11-06,WH,2022-06-29,ReadActor
SP0386,PL0514,PL,Salzburg,en,47.80949,13.05501,Q34713,,2018-11-06,WH,2022-06-29,ReadActor
SP0387,PL0515,PL,Riga,en,56.94965,24.105186,Q1773,,2018-11-07,WH,2022-06-29,ReadActor
SP0388,PL0516,PL,Melitopol,en,46.85098,35.3604,Q33349,,2018-11-07,WH,2022-06-29,ReadActor
SP0389,PL0517,PL,Sora (Lazio),en,41.71667,13.6176,,,2018-11-07,WH,2020-04-05,DP
SP0390,PL0518,PL,Bologna,en,44.494888,11.342616,Q1891,,2018-11-07,WH,2022-06-29,ReadActor
SP0391,PL0519,PL,Vannes,en,47.658237,-2.760847,,,2018-11-07,WH,2020-04-05,DP
SP0392,PL0520,PL,Yamaguchi,en,34.178497,131.473724,Q207876,,2018-11-08,WH,2022-06-29,ReadActor
SP0393,PL0521,PL,Kashiwazaki,en,37.3679,138.55453,Q633983,,2018-11-08,WH,2022-06-29,ReadActor
SP0394,PL0522,PL,Gura Ocniței,en,44.94125,25.56605,Q1869468,,2018-11-08,WH,2022-06-29,ReadActor
SP0395,PL0523,PL,Zhenjiang,en,32.188,119.424,Q57958,,2018-11-10,WH,2022-06-29,ReadActor
SP0396,PL0524,PL,Ningdu,en,26.466667,116.016667,,,2018-11-10,WH,2020-04-05,DP
SP0397,PL0525,PL,Hamhung,en,39.916667,127.533333,Q109356,,2018-11-11,WH,2022-06-29,ReadActor
SP0398,PL0526,PL,Fuyu,en,44.987,126.025,Q185940,,2018-11-11,WH,2022-06-29,ReadActor
SP0399,PL0527,PL,Chusovoy,en,58.29405,57.82407,Q198143,,2018-11-14,WH,2022-06-29,ReadActor
SP0400,PL0528,PL,Khotsimsk,en,53.40843,32.57937,Q2630628,,2018-11-14,WH,2022-06-29,ReadActor
SP0401,PL0529,PL,Liaoyuan,en,42.883333,125.15,Q92311,,2018-11-14,WH,2022-06-29,ReadActor
SP0402,PL0530,PL,Odense,en,55.395833,10.388611,Q25331,,2018-11-16,WH,2022-06-29,ReadActor
SP0403,PL0531,PL,Kherson Oblast,en,46.68301,33.40959,Q163271,,2018-11-24,WH,2022-06-29,ReadActor
SP0404,PL0532,PL,Moryntsi,en,49.26136,31.00038,Q2180620,,2018-11-24,WH,2022-06-29,ReadActor
SP0405,PL0533,PL,Freiburg,en,47.999008,7.842104,Q2833,,2018-11-25,WH,2022-06-29,ReadActor
SP0406,PL0534,PL,Saarbrücken,en,49.234779,6.9944,Q1724,,2018-11-25,WH,2022-06-29,ReadActor
SP0407,PL0535,PL,Vigo,en,42.240601,-8.720727,,,2018-11-25,WH,2020-04-05,DP
SP0408,PL0536,PL,Luzarches,en,49.11323,2.42228,Q145382,,2018-11-25,WH,2022-06-29,ReadActor
SP0409,PL0537,PL,Rimini,en,44.060921,12.5663,Q13369,,2018-11-25,WH,2022-06-29,ReadActor
SP0410,PL0538,PL,Bobai,en,22.2758,109.972,Q10909537,,2018-12-15,WH,2022-06-29,ReadActor
SP0411,PL0539,PL,Heilongjiang,en,48.494961,127.970032,,,2018-12-15,WH,2020-04-05,DP
SP0412,PL0540,PL,Laizhou,en,37.179167,119.933333,Q666700,,2018-12-16,WH,2022-06-29,ReadActor
SP0413,PL0541,PL,Yantai,en,37.4644,121.4478,Q210493,,2018-12-16,WH,2022-06-29,ReadActor
SP0414,PL0542,PL,Quanjiao,en,32.044167,118.075278,Q1197919,,2018-12-22,WH,2022-06-29,ReadActor
SP0415,PL0543,PL,Xingguo,en,26.333889,115.346111,,,2018-12-23,WH,2020-04-05,DP
SP0416,PL0544,PL,Xiangxiang,en,27.718649,112.550229,Q1207051,,2018-12-24,WH,2022-06-29,ReadActor
SP0417,PL0545,PL,Huai’an,en,33.555605,119.112818,Q57818,It’s old name was Huaiyin.,2018-12-24,WH,2022-05-03,ReadActor
SP0418,PL0546,PL,Linhai,en,28.84,121.11,Q713317,,2019-01-26,WH,2022-06-29,ReadActor
SP0419,PL0547,PL,Haining,en,30.441944,120.573056,,,2019-01-26,WH,2020-04-05,DP
SP0420,PL0548,PL,Jiner,en,31.6153,107.654,,,2019-01-31,LH,2020-04-05,DP
SP0421,PL0549,PL,Fuzhou,en,26.15,119.283333,Q68481,,2019-01-28,WH,2022-06-29,ReadActor
SP0422,PL0550,PL,Wu’an,en,36.698,114.203,Q1375613,,2019-02-17,WH,2022-05-03,ReadActor
SP0423,PL0551,PL,Xiangshan,en,29.475,121.866,,,2019-02-17,WH,2020-04-05,DP
SP0424,PL0552,PL,Cixi,en,30.166667,121.233333,,,2019-02-17,WH,2020-04-05,DP
SP0425,PL0553,PL,Dengta,en,41.433333,123.333333,Q1187128,,2019-01-28,WH,2022-06-29,ReadActor
SP0426,PL0554,PL,Pingxiang,en,27.623,113.8545,Q362865,,2019-02-23,WH,2022-06-29,ReadActor
SP0427,PL0555,PL,Rui’an,en,27.783333,120.625,Q713357,,2019-02-23,WH,2022-05-03,ReadActor
SP0428,PL0556,PL,Tongcheng,en,31.0358,116.9367,Q1197854,,2019-02-24,WH,2022-06-29,ReadActor
SP0429,PL0557,PL,Taicang,en,31.564,121.174,Q61985,,2019-02-24,WH,2022-06-29,ReadActor
SP0430,PL0558,PL,Donghai,en,34.552,118.763,,,2019-02-24,WH,2020-04-05,DP
SP0431,PL0559,PL,Wuyuan,en,29.248,117.862,,,2019-02-24,WH,2020-04-05,DP
SP0432,PL0560,PL,Enshi,en,30.291111,109.475,Q71415,,2019-03-24,WH,2022-06-29,ReadActor
SP0433,PL0561,PL,Zhaoyuan,en,37.361111,120.398806,Q197524,,2019-03-24,WH,2022-06-29,ReadActor
SP0434,PL0562,PL,Lixian,en,29.631807,111.760762,,"This place is in Hunan, and is written in 澧县.",2019-05-02,WH,2020-04-05,DP
SP0435,PL0600,PL,Pilsen,en,49.746841,13.37699,Q43453,,2019-03-08,LH,2022-05-03,ReadActor
SP0436,PL0999,PL,unknown,en,0.0,0.0,,,2018-11-13,MG,2020-04-05,DP
SP0437,,L,private school,en,0.0,0.0,,,2020-12-08,MG,2020-12-19,MG
SP0438,,L,on a train,en,0.0,0.0,,,2020-12-11,MG,2020-12-19,MG
SP0439,,L,factory,en,0.0,0.0,,,2020-12-11,MG,2020-12-19,MG
SP0440,,PL,Xiamen,en,24.479834,118.089424,Q68744,,2020-12-11,MG,2022-06-29,ReadActor
SP0441,,L,reading room,en,0.0,0.0,,,2020-12-14,MG,2020-12-14,MG
SP0442,,L,at home,en,0.0,0.0,,,2020-12-14,MG,2020-12-14,MG
SP0443,,L,state prison farm,en,0.0,0.0,,,2020-12-14,MG,2020-12-14,MG
SP0444,,L,labor camp,en,0.0,0.0,,,2020-12-14,MG,2020-12-14,MG
SP0445,,L,office,en,0.0,0.0,,,2020-12-19,MG,2020-12-19,MG
SP0446,,L,school,en,0.0,0.0,,,2020-12-19,MG,2020-12-19,MG
SP0447,,L,Tian'anmen Square,en,39.9042,116.407396,Q164055,,2021-01-05,MG,2022-05-03,ReadActor
SP0448,,L,Three Gorges Dam,en,30.81329,111.014292,Q12514,,2021-01-05,MG,2022-05-03,ReadActor
SP0449,,PL,Bolivia,en,-16.290154,-63.588654,,,2021-01-05,MG,2021-01-12,MG
SP0450,,PL,Qingdao,en,36.09193,120.328056,Q170322,,2021-01-09,MG,2022-06-29,ReadActor
SP0451,L0004,L,session of international intelligence experts,en,0.0,0.0,,,2020-02-24,MG,2022-04-06,DP
SP0452,L0005,L,rural middle school,en,0.0,0.0,,,2020-05-28,MG,2022-04-06,DP
SP0453,L0010,L,the State,en,0.0,0.0,,,2021-03-12,MG,2022-04-06,DP
SP0454,L0011,L,restaurant,en,0.0,0.0,,,2021-06-12,MG,2022-04-06,DP
SP0455,L0012,L,lecture hall,en,0.0,0.0,,,2021-06-12,MG,2022-04-06,DP
SP0456,L0013,L,zhang li river,en,0.0,0.0,,,2021-06-14,MG,2022-04-06,DP
SP0457,L0014,L,university,en,0.0,0.0,,,2021-07-09,MG,2022-04-06,DP
SP0458,PL0599,PL,Alcalá de Henares,en,40.481979,-3.363542,,,2019-09-12,MG,2022-04-06,DP
SP0459,PL0601,PL,Mumbai,en,19.075983,72.877655,,,2019-09-13,MG,2022-04-06,DP
SP0460,PL0603,PL,Hwadae County,en,40.848019,129.648393,,,2019-10-14,MG,2022-04-06,DP
SP0461,PL0604,PL,Tongxiang,en,30.76208,120.75071,,,2019-11-08,MG,2022-04-06,DP
SP0462,PL0605,PL,Lgov,en,51.69202,35.28462,,,2019-11-08,MG,2022-04-06,DP
SP0463,PL0606,PL,Tangyin,en,35.91452,114.3515,,,2019-12-12,MG,2022-04-06,DP
SP0464,PL0607,PL,Kaifeng,en,34.786072,114.348152,,,2019-12-12,MG,2022-04-06,DP
SP0465,PL0608,PL,Toronto,en,43.653225,-79.383186,,,2019-12-12,MG,2022-04-06,DP
SP0466,PL0609,PL,Nîmes,en,43.834591,4.36086,,,2019-12-12,MG,2022-04-06,DP
SP0467,PL0610,PL,Rostov Oblast,en,47.221809,39.720261,,,2019-12-17,MG,2022-04-06,DP
SP0468,PL0611,PL,Dublin,en,53.349804,-6.26031,,,2020-01-06,MG,2022-04-06,DP
SP0469,PL0612,PL,Compton,en,50.47261,-3.59829,,,2020-01-15,MG,2022-04-06,DP
SP0470,PL0614,PL,Zhao County,en,37.74913,114.76894,,,2020-02-06,MG,2022-04-06,DP
SP0471,PL0615,PL,Yangquan,en,37.869968,113.570007,,,2020-02-14,MG,2022-04-06,DP
SP0472,PL0616,PL,Springdale,en,40.54147,-79.77781,,,2020-02-14,MG,2022-04-06,DP
SP0473,PL0617,PL,Suqian,en,30.1875,119.39167,,,2020-05-25,MG,2022-04-06,DP
SP0474,PL0618,PL,Fengxian,en,34.69783,116.593643,,,2020-05-25,MG,2022-04-06,DP
SP0475,PL0619,PL,Haian,en,32.54806,120.4486,,,2020-05-28,MG,2022-04-06,DP
SP0476,PL0630,PL,Huanggang,en,24.93465,121.08024,,,2020-06-18,MG,2022-04-06,DP
SP0477,PL0635,PL,Wiesbaden,en,50.078217,8.239761,,,2020-06-29,MG,2022-04-06,DP
SP0478,PL0636,PL,Zhucheng,en,35.98996,119.38009,,,2020-06-30,MG,2022-04-06,DP
SP0479,PL0637,PL,Celle,en,52.621922,10.07858,,,2020-08-07,MG,2022-04-06,DP
SP0480,PL0638,PL,Usmanka,en,52.82394,51.69852,,,2021-01-16,MG,2022-04-06,DP
SP0481,PL0639,PL,Munich,en,48.135124,11.581981,,,2021-02-24,MG,2022-04-06,DP
SP0482,PL0640,PL,Honolulu,en,21.306944,-157.858337,,,2021-03-03,MG,2022-04-06,DP
SP0483,PL0641,PL,Wenzhou,en,28.002701,120.647919,,,2021-03-08,MG,2022-04-06,DP
SP0484,PL0642,PL,Ningxiang,en,28.277481,112.551888,,,2021-03-08,MG,2022-04-06,DP
SP0485,PL0643,PL,Zhejiang,en,29.159849,120.326447,,,2021-03-08,MG,2022-04-06,DP
SP0486,PL0644,PL,Shantou,en,23.360821,116.67749,,,2021-03-09,MG,2022-04-06,DP
SP0487,PL0645,PL,Haiphong,en,20.844912,106.688087,,,2021-03-09,MG,2022-04-06,DP
SP0488,PL0646,PL,Guangxi,en,23.64407,108.26651,,,2021-03-10,MG,2022-04-06,DP
SP0489,PL0647,PL,Nanyang,en,32.990665,112.528305,,,2021-03-10,MG,2022-04-06,DP
SP0490,PL0648,PL,Motihari,en,26.65617,84.918182,,,2021-03-12,MG,2022-04-06,DP
SP0491,PL0649,PL,Bunhill,en,51.52709,-0.09683,,,2021-03-15,MG,2022-04-06,DP
SP0492,PL0650,PL,Tibet,en,30.15336,88.787865,,,2021-03-18,MG,2022-04-06,DP
SP0493,PL0651,PL,Ljubljana,en,46.056946,14.505752,,,2021-03-18,MG,2022-04-06,DP
SP0494,PL0652,PL,Souk Ahras,en,36.28553,7.96276,,,2021-03-18,MG,2022-04-06,DP
SP0495,PL0653,PL,Woolsthorpe-by-Colsterworth,en,52.809551,-0.6356,,,2021-03-23,MG,2022-04-06,DP
SP0496,PL0654,PL,Xuzhou,en,34.26091,117.191078,,,2021-04-05,MG,2022-04-06,DP
SP0497,PL0655,PL,Jilin,en,43.851921,126.548103,,,2021-04-05,MG,2022-04-06,DP
SP0498,PL0656,PL,Anqing,en,30.49996,117.050003,,,2021-04-06,MG,2022-04-06,DP
SP0499,PL0657,PL,Illinois,en,40.633125,-89.398529,,,2021-04-06,MG,2022-04-06,DP
SP0500,PL0658,PL,Minehead,en,51.20554,-3.47895,,,2021-05-05,MG,2022-04-06,DP
SP0501,PL0659,PL,Glendale,en,33.538559,-112.183701,,,2021-06-07,MG,2022-04-06,DP
SP0502,PL0660,PL,Cambridge,en,52.205338,0.121817,,,2021-06-12,MG,2022-04-06,DP
SP0503,PL0661,PL,Funchal,en,32.666931,-16.924055,,,2021-06-14,MG,2022-04-06,DP
SP0504,PL0662,PL,Bazentin,en,50.03079,2.76241,,,2021-06-14,MG,2022-04-06,DP
SP0505,PL0663,PL,Venice,en,45.440845,12.315515,,,2021-06-14,MG,2022-04-06,DP
SP0506,PL0664,PL,Bayman,en,34.68499,67.29818,,,2021-06-15,MG,2022-04-06,DP
SP0507,PL0665,PL,Wugong,en,25.0658,121.45487,,,2021-06-16,MG,2022-04-06,DP
SP0508,PL0666,PL,Lijiang,en,26.799999,100.266579,,,2021-06-21,MG,2022-04-06,DP
SP0509,PL0667,PL,Langar,en,52.903069,-0.92482,,,2021-06-22,MG,2022-04-06,DP
SP0510,PL0668,PL,Columbia,en,34.00071,-81.034813,,,2021-06-22,MG,2022-04-06,DP
SP0511,PL0669,PL,Petrovichi,en,55.35521,27.44131,,,2021-06-23,MG,2022-04-06,DP
SP0512,PL0670,PL,Verkhnie Aremzyani,en,58.30922,68.59033,,,2021-06-23,MG,2022-04-06,DP
SP0513,PL0671,PL,Tengzhou,en,22.686359,109.265228,,,2021-06-23,MG,2022-04-06,DP
SP0514,PL0672,PL,Landshut,en,48.544193,12.146853,,,2021-06-23,MG,2022-04-06,DP
SP0515,PL0673,PL,Meßkirch,en,47.99321,9.11422,,,2021-06-23,MG,2022-04-06,DP
SP0516,PL0674,PL,Yongle,en,34.53045,108.93168,,,2021-06-23,MG,2022-04-06,DP
SP0517,PL0675,PL,'s-Hertogenbosch,en,51.697815,5.303675,,,2021-07-02,MG,2022-04-06,DP
SP0518,PL0676,PL,Knoxville,en,35.960636,-83.920738,,,2021-07-09,MG,2022-04-06,DP
SP0519,PL0677,PL,Yixing,en,24.06039,120.534286,,,2021-07-09,MG,2022-04-06,DP
SP0520,PL0678,PL,Circle,en,47.416359,-105.58844,,,2021-07-09,MG,2022-04-06,DP
SP0521,PL0679,PL,Oxford,en,51.752022,-1.257726,,,2021-07-09,MG,2022-04-06,DP
SP0522,PL0680,PL,Siracusa,en,37.06617,15.28426,,,2021-07-10,MG,2022-04-06,DP
SP0523,PL0681,PL,Bordeaux,en,44.837788,-0.57918,,,2021-07-10,MG,2022-04-06,DP
SP0524,PL0682,PL,Basel,en,47.559601,7.588576,,,2021-07-10,MG,2022-04-06,DP
SP0525,PL0683,PL,Rotterdam,en,51.924419,4.477733,,,2021-07-10,MG,2022-04-06,DP
SP0526,PL0684,PL,Kyrgyztan,en,42.869961,74.569962,,,2021-07-11,MG,2022-04-06,DP
SP0527,PL0685,PL,Yongji,en,39.480068,125.515129,,,2021-07-11,MG,2022-04-06,DP
SP0528,PL0686,PL,Xiangyang,en,32.017342,112.149147,,,2021-07-11,MG,2022-04-06,DP
SP0529,PL0687,PL,Brody,en,51.024052,21.20491,,,2021-07-11,MG,2022-04-06,DP
SP0530,PL0688,PL,Kirkcaldy,en,56.112831,-3.16073,,,2021-07-14,MG,2022-04-06,DP
SP0531,PL0689,PL,Toruń,en,53.015331,18.6057,,,2021-07-14,MG,2022-04-06,DP
SP0532,PL0690,PL,Pisa,en,43.722839,10.401689,,,2021-07-14,MG,2022-04-06,DP
SP0533,PL0691,PL,Newington Butts,en,51.49147,-0.10281,,,2021-07-14,MG,2022-04-06,DP
SP0534,PL0692,PL,Hynčice,en,50.62399,16.28736,,,2021-07-19,MG,2022-04-06,DP
SP0535,PL0693,PL,Mainz,en,49.992863,8.247253,,,2021-07-20,MG,2022-04-06,DP
SP0536,PL0694,PL,Kesswill,en,47.59373,9.31599,,,2021-07-20,MG,2022-04-06,DP
SP0537,PL0695,PL,Takaoka,en,36.754139,137.016693,,,2021-07-20,MG,2022-04-06,DP
SP0538,PL0696,PL,Himi,en,36.855652,136.984283,,,2021-07-20,MG,2022-04-06,DP
SP0539,PL0697,PL,Kirriemuir,en,56.674011,-3.00497,,,2021-07-21,MG,2022-04-06,DP
SP0540,PL0698,PL,Mountain View,en,37.386051,-122.083855,,,2021-07-21,MG,2022-04-06,DP
SP0541,PL0699,PL,South Yarra,en,-37.84,144.988998,,,2021-07-25,MG,2022-04-06,DP
SP1000,,PL,Jefferson,en,36.42,-81.468889,,,2021-06-07,DP,2021-06-07,DP
SP1001,,PL,Melksham,en,51.371,-2.138,,,2021-06-07,DP,2021-06-07,DP
