space_id,old_id,space_name,space_type,language,lat,long,wikidata_id,note,created,created_by,last_modified,last_modified_by
SP0001,L0001,library,L,en,0.0,0.0,,,2018-07-23,MG,2020-04-05,DP
SP0002,L0002,prison,L,en,0.0,0.0,,,2018-07-23,MG,2020-04-05,DP
SP0003,L0003,book store,L,en,0.0,0.0,,,2018-07-30,MG,2020-04-05,DP
SP0004,PL0001,China,PL,en,35.86166,104.195397,,,2017-07-07,OS,2020-04-05,DP
SP0005,PL0002,Beijing,PL,en,39.9042,116.407396,,,2017-07-08,OS,2020-04-05,DP
SP0006,PL0003,Shanghai,PL,en,31.23039,121.473702,,,2017-07-09,OS,2020-04-05,DP
SP0007,PL0004,Chengdu,PL,en,30.572815,104.066801,,,2017-07-10,OS,2020-04-05,DP
SP0008,PL0005,Xuanhua,PL,en,40.608793,115.099494,,,2017-07-11,OS,2020-04-05,DP
SP0009,PL0006,Sichuan,PL,en,30.263803,102.805475,,,2017-07-12,OS,2020-04-05,DP
SP0010,PL0007,Yunnan,PL,en,24.475285,101.343106,,,2017-07-13,OS,2020-04-05,DP
SP0011,PL0008,Heilongjiang,PL,en,47.121647,128.738231,,,2017-07-14,OS,2020-04-05,DP
SP0012,PL0009,Laixi,PL,en,36.889084,120.51769,,,2017-07-15,OS,2020-04-05,DP
SP0013,PL0010,Ningnan,PL,en,27.066308,102.759686,,,2017-07-16,OS,2020-04-05,DP
SP0014,PL0011,Shandong,PL,en,35.893957,117.9249,,,2017-07-17,OS,2020-04-05,DP
SP0015,PL0012,Chongqing,PL,en,29.561008,106.552635,,,2017-07-18,OS,2020-04-05,DP
SP0016,PL0013,Shenqiu,PL,en,33.409368,115.098583,,,2017-07-19,OS,2020-04-05,DP
SP0017,PL0014,Xinjiang,PL,en,42.524636,87.539585,,,2017-07-20,OS,2020-04-05,DP
SP0018,PL0015,Xianning,PL,en,29.841438,114.322439,,,2017-07-21,OS,2020-04-05,DP
SP0019,PL0016,Germany,PL,en,51.165691,10.451526,,,2017-07-22,OS,2020-04-05,DP
SP0020,PL0017,Hongkong,PL,en,22.396428,114.109497,Q8646,,2017-07-23,OS,2022-05-03,ReadActor
SP0021,PL0018,Tianjin,PL,en,39.343357,117.361648,,,2017-07-24,OS,2020-04-05,DP
SP0022,PL0019,Harbin,PL,en,45.803775,126.534967,,,2017-07-08,OS,2020-04-05,DP
SP0023,PL0020,Shenyang,PL,en,41.805699,123.431472,,,2017-07-08,OS,2020-04-05,DP
SP0024,PL0021,Yan'an,PL,en,36.585445,109.489757,,,2017-07-08,OS,2020-04-05,DP
SP0025,PL0022,Baiyangdian,PL,en,38.941441,115.969465,Q2665615,,2017-07-08,OS,2022-05-03,ReadActor
SP0026,PL0023,Breslau,PL,en,51.107885,17.038538,Q1799,,2017-07-08,OS,2022-05-03,ReadActor
SP0027,PL0024,Sheker,PL,en,42.544292,71.171379,Q2600970,,2017-07-09,OS,2022-05-03,ReadActor
SP0028,PL0025,Bolshoy Fontan,PL,en,46.482526,30.72331,,,2017-07-09,OS,2020-04-05,DP
SP0029,PL0026,Kazan,PL,en,55.830431,49.066081,,,2017-07-09,OS,2020-04-05,DP
SP0030,PL0027,Moscow,PL,en,55.755826,37.6173,,,2017-07-09,OS,2020-04-05,DP
SP0031,PL0028,Birmendreïs,PL,en,36.735349,3.050374,Q2534015,,2017-07-09,OS,2022-05-03,ReadActor
SP0032,PL0029,Vonu,PL,en,40.141308,19.692947,,,2017-07-09,OS,2020-04-05,DP
SP0033,PL0030,Oryol,PL,en,52.966847,36.06249,,,2017-07-09,OS,2020-04-05,DP
SP0034,PL0031,Stagira,PL,en,40.591667,23.794722,,,2017-07-09,OS,2020-04-05,DP
SP0035,PL0032,Dobroslavivka,PL,en,50.3253,34.82574,,,2017-07-09,OS,2020-04-05,DP
SP0036,PL0033,Craiova,PL,en,44.330179,23.794881,,,2017-07-10,OS,2020-04-05,DP
SP0037,PL0034,Izium Raion,PL,en,49.212145,37.266501,,,2017-07-10,OS,2020-04-05,DP
SP0038,PL0035,Eisenach,PL,en,50.979571,10.314687,,,2017-07-10,OS,2020-04-05,DP
SP0039,PL0036,London,PL,en,51.507351,-0.127758,,,2017-07-10,OS,2020-04-05,DP
SP0040,PL0037,Haimen,PL,en,31.871173,121.181615,,,2017-07-10,OS,2020-04-05,DP
SP0041,PL0038,Schöneberg,PL,en,52.489344,13.352548,,,2017-07-10,OS,2020-04-05,DP
SP0042,PL0039,Shuya,PL,en,56.851134,41.357534,,,2017-07-10,OS,2020-04-05,DP
SP0043,PL0040,Tours,PL,en,47.394144,0.68484,,,2017-07-10,OS,2020-04-05,DP
SP0044,PL0041,Foxrock,PL,en,53.266889,-6.18401,,,2017-07-10,OS,2020-04-05,DP
SP0045,PL0042,Bonn,PL,en,50.73743,7.098207,,,2017-07-10,OS,2020-04-05,DP
SP0046,PL0043,Sveaborg,PL,en,60.1454,24.98814,Q1292442,,2017-07-10,OS,2022-05-03,ReadActor
SP0047,PL0044,La Côte-Saint-André,PL,en,45.393794,5.260022,,,2017-07-10,OS,2020-04-05,DP
SP0048,PL0045,Shaoxing,PL,en,29.995762,120.586109,,,2017-07-12,OS,2020-04-05,DP
SP0049,PL0046,Taiyuan,PL,en,37.87059,112.548879,,,2017-07-12,OS,2020-04-05,DP
SP0050,PL0047,Paris,PL,en,48.856614,2.352222,,,2017-07-12,OS,2020-04-05,DP
SP0051,PL0048,Hamburg,PL,en,53.551085,9.993682,,,2017-07-12,OS,2020-04-05,DP
SP0052,PL0049,Bradford,PL,en,53.795984,-1.759398,,,2017-07-12,OS,2020-04-05,DP
SP0053,PL0050,New York,PL,en,40.712784,-74.005941,,,2017-07-12,OS,2020-04-05,DP
SP0054,PL0051,Changsha,PL,en,28.228209,112.938814,,,2017-07-12,OS,2020-04-05,DP
SP0055,PL0052,Miluo,PL,en,28.806394,113.06724,,,2017-07-12,OS,2020-04-05,DP
SP0056,PL0053,Beidahuang,PL,en,45.73722,126.692441,,,2017-07-12,OS,2020-04-05,DP
SP0057,PL0054,Urumqi,PL,en,43.825592,87.616848,Q16959,,2017-07-12,OS,2022-05-03,ReadActor
SP0058,PL0055,Xichang,PL,en,27.894504,102.264449,,,2017-07-12,OS,2020-04-05,DP
SP0059,PL0056,Jinjiang (Fujian),PL,en,24.781681,118.552365,,,2017-07-18,LH,2020-04-05,DP
SP0060,PL0057,Nizhny Novgorod,PL,en,56.296504,43.936059,,,2017-07-19,LH,2020-04-05,DP
SP0061,PL0058,Saint Petersburg,PL,en,59.93428,30.335099,,,2017-07-18,OS,2020-04-05,DP
SP0062,PL0059,Mojkovac,PL,en,42.960077,19.583587,,,2017-07-25,MG,2020-04-05,DP
SP0063,PL0060,Changge,PL,en,34.194135,113.819888,,,2017-08-01,LH,2020-04-05,DP
SP0064,PL0061,Lufeng,PL,en,23.165614,116.210632,Q1025345,,2017-08-08,MG,2022-05-03,ReadActor
SP0065,PL0062,Yanting,PL,en,31.208363,105.389453,,,2017-08-11,MG,2020-04-05,DP
SP0066,PL0063,Berlin,PL,en,52.52437,13.41053,,,2017-08-15,MG,2020-04-05,DP
SP0067,PL0064,Vietnam,PL,en,14.058324,108.277199,,,2017-08-26,MG,2020-04-05,DP
SP0068,PL0065,Prague,PL,en,50.075538,14.4378,,,2017-07-19,OS,2020-04-05,DP
SP0069,PL0066,Lowell,PL,en,42.633425,-71.316172,,,2017-07-20,OS,2020-04-05,DP
SP0070,PL0067,Ganzhou,PL,en,25.830694,114.933546,,,2017-08-31,MG,2020-04-05,DP
SP0071,PL0068,Nuoro,PL,en,40.320242,9.326438,,,2017-09-06,CW,2020-04-05,DP
SP0072,PL0069,Ningbo,PL,en,29.868336,121.54399,Q42780,,2017-09-06,CW,2022-05-03,ReadActor
SP0073,PL0070,Guangzhou,PL,en,23.128994,113.25325,,,2017-09-08,MG,2020-04-05,DP
SP0074,PL0071,Thornton,PL,en,53.7833,-1.85,,,2017-09-22,MG,2020-04-05,DP
SP0075,PL0072,Princeton,PL,en,40.3486111,-74.6594444,,,2017-09-22,MG,2020-04-05,DP
SP0076,PL0073,Dréan,PL,en,36.6848,7.7511,Q1924629,,2017-09-22,MG,2022-05-03,ReadActor
SP0077,PL0074,Lanzhou,PL,en,36.061089,103.834303,,,2017-09-16,CW,2020-04-05,DP
SP0078,PL0075,Gobi Desert,PL,en,42.795154,105.032363,,,2017-09-16,CW,2020-04-05,DP
SP0079,PL0076,Hebei,PL,en,37.895659,114.904221,,,2017-09-24,CW,2020-04-05,DP
SP0080,PL0077,Luoyang,PL,en,23.16244,114.27342,,,2017-09-26,MG,2020-04-05,DP
SP0081,PL0078,Taganrog,PL,en,47.23617,38.89688,,,2017-09-27,MG,2020-04-05,DP
SP0082,PL0079,Saratow,PL,en,51.592365,45.960804,,,2017-09-29,MG,2020-04-05,DP
SP0083,PL0080,Shaoshan,PL,en,27.905996376,112.474664768,,,2017-10-03,MG,2020-04-05,DP
SP0084,PL0081,Huangbei,PL,en,29.758889,118.534167,,,2017-10-03,MG,2020-04-05,DP
SP0085,PL0082,Suzhou,PL,en,31.30408,120.59538,,,2017-10-03,MG,2020-04-05,DP
SP0086,PL0083,Portsmouth,PL,en,50.819767,-1.087977,,,2017-10-08,MG,2020-04-05,DP
SP0087,PL0084,Abingdon,PL,en,51.67109,-1.28278,,,2017-10-09,MG,2020-04-05,DP
SP0088,PL0085,Shrewsbury,PL,en,52.71009,-2.75208,,,2017-10-09,MG,2020-04-05,DP
SP0089,PL0086,Fondi,PL,en,41.35285,13.43227,,,2017-10-09,MG,2020-04-05,DP
SP0090,PL0087,Essex,PL,en,51.765907,0.667367,,,2017-10-09,MG,2020-04-05,DP
SP0091,PL0088,Belgrade,PL,en,44.80401,20.46513,,,2017-10-09,MG,2020-04-05,DP
SP0092,PL0089,Taipei,PL,en,25.105497,121.597366,,,2017-10-16,MG,2020-04-05,DP
SP0093,PL0090,Nanjing,PL,en,32.06167,118.77778,,,2017-10-24,MG,2020-04-05,DP
SP0094,PL0091,Hankou,PL,en,30.541831166,114.32583203,Q1208250,,2017-10-24,MG,2022-05-03,ReadActor
SP0095,PL0092,Zhengzhou,PL,en,34.75778,113.64861,,,2017-10-24,MG,2020-04-05,DP
SP0096,PL0093,Changchun,PL,en,43.892362,125.34072,,,2017-10-24,MG,2020-04-05,DP
SP0097,PL0094,Ulyanovsk,PL,en,54.32824,48.38657,,,2017-10-24,MG,2020-04-05,DP
SP0098,PL0095,Trier,PL,en,49.75565,6.63935,,,2017-10-24,MG,2020-04-05,DP
SP0099,PL0096,Hangzhou,PL,en,29.9978,119.7722,Q4970,,2017-10-30,MG,2022-05-03,ReadActor
SP0100,PL0097,Zhumadian,PL,en,32.97944,114.02944,,,2017-10-30,MG,2020-04-05,DP
SP0101,PL0098,Qufu,PL,en,35.59667,116.99111,,,2017-10-30,MG,2020-04-05,DP
SP0102,PL0099,Shangcai,PL,en,33.397216,114.476947,,,2017-10-30,MG,2020-04-05,DP
SP0103,PL0100,Jiangsu,PL,en,33.140172,119.788925,,,2017-11-19,CW,2020-04-05,DP
SP0104,PL0101,Düsseldorf,PL,en,51.227741,6.773456,Q1718,,2017-12-13,MG,2022-05-03,ReadActor
SP0105,PL0102,New Brunswick,PL,en,40.486216,-74.451819,,,2017-12-17,MG,2020-04-05,DP
SP0106,PL0103,Changzhou,PL,en,31.811226,119.974061,,,2017-12-23,OS,2020-04-05,DP
SP0107,PL0104,Xushui,PL,en,39.018736,115.655774,,,2017-12-19,MG,2020-04-05,DP
SP0108,PL0105,Longkou,PL,en,37.646108,120.477813,,,2017-12-23,MG,2020-04-05,DP
SP0109,PL0106,Gori,PL,en,41.985414,44.108411,,,2017-12-23,OS,2020-04-05,DP
SP0110,PL0107,Yegoryevsk,PL,en,55.385141,39.032322,,,2017-12-23,OS,2020-04-05,DP
SP0111,PL0108,Yizhen,PL,en,34.203246,108.945896,,,2017-12-29,OS,2020-04-05,DP
SP0112,PL0109,Stanford,PL,en,37.427475,-122.169719,,,2017-12-29,OS,2020-04-05,DP
SP0113,PL0110,Hunan,PL,en,27.6253,111.856859,,,2018-01-04,MG,2020-04-05,DP
SP0114,PL0111,Inner Mongolia,PL,en,43.37822,115.059481,,,2018-01-04,MG,2020-04-05,DP
SP0115,PL0112,Guizhou,PL,en,26.842965,107.290284,,,2018-01-04,MG,2020-04-05,DP
SP0116,PL0113,Yichang,PL,en,30.691966,111.286471,,,2018-01-03,OS,2020-04-05,DP
SP0117,PL0114,Berkeley,PL,en,37.871899,-122.25854,,,2018-01-10,MG,2020-04-05,DP
SP0118,PL0115,Xixian,PL,en,32.342792,114.740456,,,2018-01-10,MG,2020-04-05,DP
SP0119,PL0116,Yizheng,PL,en,32.272258,119.184766,,,2018-01-16,MG,2020-04-05,DP
SP0120,PL0118,Tieling,PL,en,42.223828,123.726035,,,2018-02-06,OS,2020-04-05,DP
SP0121,PL0119,Villers-Cotterêts,PL,en,49.255061,3.090816,,,2018-02-06,OS,2020-04-05,DP
SP0122,PL0120,Brussels,PL,en,50.850346,4.351721,,,2018-02-06,OS,2020-04-05,DP
SP0123,PL0121,Edinburgh,PL,en,55.953252,-3.188267,,,2018-02-05,OS,2020-04-05,DP
SP0124,PL0122,Kovachevtsi,PL,en,42.559002,22.817838,,,2018-02-05,OS,2020-04-05,DP
SP0125,PL0123,Cork,PL,en,51.896892,-8.486316,,,2018-02-03,OS,2020-04-05,DP
SP0126,PL0124,Kalinovka,PL,en,51.893853,34.509259,,,2018-02-01,OS,2020-04-05,DP
SP0127,PL0125,Kislowodsk,PL,en,43.905601,42.728095,Q153676,,2018-02-01,OS,2022-05-03,ReadActor
SP0128,PL0126,Budapest,PL,en,47.497912,19.040235,,,2018-02-01,OS,2020-04-05,DP
SP0129,PL0127,Kumrovec,PL,en,46.076437,15.680309,,,2018-02-01,OS,2020-04-05,DP
SP0130,PL0128,Bereslavka,PL,en,47.89197,32.293262,,,2018-02-01,OS,2020-04-05,DP
SP0131,PL0129,Xingtai,PL,en,37.070834,114.504677,Q58576,,2018-02-01,OS,2022-05-03,ReadActor
SP0132,PL0130,Linhe,PL,en,40.751187,107.363918,,,2018-02-01,OS,2020-04-05,DP
SP0133,PL0131,Shanghexi,PL,en,39.4065,112.9054,,,2018-02-06,OS,2020-04-05,DP
SP0134,PL0132,Liverpool,PL,en,53.408371,-2.991573,,,2018-01-30,OS,2020-04-05,DP
SP0135,PL0133,Zhangjiakou,PL,en,40.767544,114.886335,,,2018-01-09,OS,2020-04-05,DP
SP0136,PL0134,Leshan,PL,en,29.552115,103.765678,,,2018-01-09,OS,2020-04-05,DP
SP0137,PL0135,Henan,PL,en,34.29043,113.382355,,,2018-01-10,OS,2020-04-05,DP
SP0138,PL0136,Guangdong,PL,en,23.379033,113.763283,,,2018-01-10,OS,2020-04-05,DP
SP0139,PL0137,Chaocheng,PL,en,36.05627,115.590164,Q11092516,,2018-01-12,OS,2022-05-03,ReadActor
SP0140,PL0138,Fenyang,PL,en,37.261564,111.769893,,,2018-01-12,OS,2020-04-05,DP
SP0141,PL0139,Xibaipo,PL,en,38.351264,113.940554,Q3373621,,2018-01-18,OS,2022-05-03,ReadActor
SP0142,PL0140,Chadian,PL,en,39.262324,117.805932,,,2018-01-18,OS,2020-04-05,DP
SP0143,PL0141,Taigu,PL,en,37.421307,112.551305,,,2018-01-18,OS,2020-04-05,DP
SP0144,PL0142,Kiev,PL,en,50.4501,30.5234,Q1899,,2018-01-23,OS,2022-05-03,ReadActor
SP0145,PL0143,St. Louis,PL,en,38.627003,-90.199404,,,2018-01-24,OS,2020-04-05,DP
SP0146,PL0144,Saint Denis,PL,en,48.936181,2.357443,Q160506,,2018-01-24,OS,2022-05-03,ReadActor
SP0147,PL0145,Wuppertal,PL,en,51.256213,7.150764,,,2018-01-24,OS,2020-04-05,DP
SP0148,PL0146,Haicheng,PL,en,40.882377,122.685217,,,2018-01-25,OS,2020-04-05,DP
SP0149,PL0147,Dalian,PL,en,38.920833,121.639167,,,2018-01-26,WH,2020-04-05,DP
SP0150,PL0148,Xinyang,PL,en,32.1472,114.0903,,,2018-01-26,WH,2020-04-05,DP
SP0151,PL0149,Zhongxian,PL,en,30.355948,107.83845,,,2018-02-06,WH,2020-04-05,DP
SP0152,PL0150,Guzhen,PL,en,33.284159,117.335383,,,2018-02-06,WH,2020-04-05,DP
SP0153,PL0151,Jiutai,PL,en,44.135246,125.977127,Q1015907,,2018-02-06,WH,2022-05-03,ReadActor
SP0154,PL0152,Linyi,PL,en,35.104673,118.356414,,,2018-02-08,OS,2020-04-05,DP
SP0155,PL0153,Jinan,PL,en,36.633333,117.016667,,,2018-02-07,WH,2020-04-05,DP
SP0156,PL0154,Suibin Nongchang,PL,en,47.523305,131.69029,,,2018-02-07,WH,2020-04-05,DP
SP0157,PL0155,Baishiyi,PL,en,29.487869,106.367617,,,2018-02-07,WH,2020-04-05,DP
SP0158,PL0156,Wafangdian,PL,en,39.627114,121.979603,,,2018-02-11,OS,2020-04-05,DP
SP0159,PL0157,Marseille,PL,en,43.296482,5.36978,,,2018-02-11,OS,2020-04-05,DP
SP0160,PL0158,Berkhamsted,PL,en,51.759766,-0.567857,,,2018-02-12,OS,2020-04-05,DP
SP0161,PL0159,Jimo,PL,en,36.389401,120.44716,,,2018-02-13,OS,2020-04-05,DP
SP0162,PL0160,Hanau,PL,en,50.126412,8.92831,,,2018-02-13,OS,2020-04-05,DP
SP0163,PL0161,Yuncheng,PL,en,35.026516,111.00746,,,2018-02-13,OS,2020-04-05,DP
SP0164,PL0162,Viliya,PL,en,50.193612,26.260522,,,2018-02-13,OS,2020-04-05,DP
SP0165,PL0163,Yiyang,PL,en,28.55386,112.35518,,,2018-02-13,OS,2020-04-05,DP
SP0166,PL0164,Rosario,PL,en,-32.944243,-60.650539,,,2018-02-13,OS,2020-04-05,DP
SP0167,PL0165,Fengshan,PL,en,41.208899,116.645932,,,2018-02-13,OS,2020-04-05,DP
SP0168,PL0166,Salem,PL,en,42.51954,-70.896716,,,2018-02-14,OS,2020-04-05,DP
SP0169,PL0167,Vienna,PL,en,48.208174,16.373819,,,2018-02-14,OS,2020-04-05,DP
SP0170,PL0168,Zaozhuang,PL,en,34.773263,117.590815,,,2018-02-14,OS,2020-04-05,DP
SP0171,PL0169,Wanxian,PL,en,30.807667,108.408661,,,2018-02-14,OS,2020-04-05,DP
SP0172,PL0170,Stuttgart,PL,en,48.775846,9.182932,,,2018-02-14,OS,2020-04-05,DP
SP0173,PL0171,Oak Park,PL,en,41.885032,-87.784503,,,2018-02-14,OS,2020-04-05,DP
SP0174,PL0172,Besançon,PL,en,47.237829,6.024054,,,2018-02-15,OS,2020-04-05,DP
SP0175,PL0173,Slatina,PL,en,45.701932,17.701144,,,2018-02-15,OS,2020-04-05,DP
SP0176,PL0174,Sevastopol,PL,en,44.61665,33.525367,,,2018-02-16,OS,2020-04-05,DP
SP0177,PL0175,Mangyongdae,PL,en,38.996738,125.656018,,,2018-02-16,OS,2020-04-05,DP
SP0178,PL0176,Montreal,PL,en,45.501689,-73.567256,,,2018-02-16,OS,2020-04-05,DP
SP0179,PL0177,Veliky Novgorod,PL,en,58.52557,31.274193,,,2018-02-19,OS,2020-04-05,DP
SP0180,PL0178,Osino-Gay,PL,en,53.037391,42.402225,,,2018-02-19,OS,2020-04-05,DP
SP0181,PL0179,Dnipro,PL,en,48.464717,35.046183,,,2018-02-19,OS,2020-04-05,DP
SP0182,PL0180,Kherson,PL,en,46.635417,32.616867,,,2018-02-19,OS,2020-04-05,DP
SP0183,PL0181,Wuxi,PL,en,31.491169,120.31191,,,2018-02-27,OS,2020-04-05,DP
SP0184,PL0182,Xi'an,PL,en,34.341574,108.93977,,,2018-02-27,OS,2020-04-05,DP
SP0185,PL0183,Zhuozhou,PL,en,39.485282,115.974422,,,2018-02-27,OS,2020-04-05,DP
SP0186,PL0184,Xuchang,PL,en,34.035771,113.852454,,,2018-02-28,OS,2020-04-05,DP
SP0187,PL0185,Wuhan,PL,en,30.583333,114.316667,,,2018-03-13,WH,2020-04-05,DP
SP0188,PL0186,Kalimpon,PL,en,27.06,88.47,,,2018-03-13,WH,2020-04-05,DP
SP0189,PL0187,Changling,PL,en,44.274527,123.976973,,,2018-03-13,WH,2020-04-05,DP
SP0190,PL0188,Zhongjiang,PL,en,31.037084,104.679891,,,2018-03-13,WH,2020-04-05,DP
SP0191,PL0189,Ji’an,PL,en,27.0875,114.9645,Q363262,,2018-03-13,WH,2022-05-03,ReadActor
SP0192,PL0190,Zhanhai,PL,en,29.95481,121.70961,,,2018-03-13,WH,2020-04-05,DP
SP0193,PL0191,Nantong,PL,en,32.01456,120.84451,,,2018-03-13,WH,2020-04-05,DP
SP0194,PL0192,Chifeng,PL,en,42.2579,118.94804,,,2018-03-13,WH,2020-04-05,DP
SP0195,PL0193,Anyang,PL,en,36.0973,114.3922,,,2018-03-13,WH,2020-04-05,DP
SP0196,PL0194,Dunhua,PL,en,43.402157,127.991883,,,2018-03-13,WH,2020-04-05,DP
SP0197,PL0195,Wrocław,PL,en,51.107778,17.038333,,,2018-03-13,WH,2020-04-05,DP
SP0198,PL0196,Certaldo,PL,en,43.547778,11.041111,,,2018-03-13,WH,2020-04-05,DP
SP0199,PL0197,Bakhmut,PL,en,48.591389,38.080556,,,2018-03-13,WH,2020-04-05,DP
SP0200,PL0198,Chenzhou,PL,en,25.7706,113.0145,,,2018-03-13,WH,2020-04-05,DP
SP0201,PL0199,Fenghuang,PL,en,27.948308,109.599191,,,2018-03-06,MG,2020-04-05,DP
SP0202,PL0200,Yangzhou,PL,en,32.394209,119.412939,,,2018-03-06,MG,2020-04-05,DP
SP0203,PL0201,Nanzhang,PL,en,31.774635,111.838905,,,2018-03-06,MG,2020-04-05,DP
SP0204,PL0202,Porbandar,PL,en,21.641707,69.629265,,,2018-03-12,MG,2020-04-05,DP
SP0205,PL0203,Grenoble,PL,en,45.188529,5.724524,,,2018-03-12,MG,2020-04-05,DP
SP0206,PL0204,Lianshui,PL,en,33.781331,119.260227,,,2018-03-13,MG,2020-04-05,DP
SP0207,PL0205,Xiangchuan,PL,en,28.515646,112.134533,,,2018-03-13,MG,2020-04-05,DP
SP0208,PL0206,Manchester,PL,en,53.480759,-2.242631,,,2018-03-13,MG,2020-04-05,DP
SP0209,PL0207,Kempen,PL,en,51.364994,6.420531,,,2018-03-14,MG,2020-04-05,DP
SP0210,PL0208,Linli,PL,en,29.440793,111.647517,,,2018-03-17,WH,2020-04-05,DP
SP0211,PL0209,Terre Haute,PL,en,39.469722,-87.389722,,,2018-03-28,WH,2020-04-05,DP
SP0212,PL0210,Gongyi,PL,en,34.755275,113.008664,,,2018-03-28,WH,2020-04-05,DP
SP0213,PL0211,Hancheng,PL,en,35.466667,110.433333,,,2018-03-28,WH,2020-04-05,DP
SP0214,PL0227,Yanchuan,PL,en,36.878117,110.193514,,,2018-03-21,MG,2020-04-05,DP
SP0215,PL0228,Penglai,PL,en,37.810661,120.758848,,,2018-03-21,MG,2020-04-05,DP
SP0216,PL0229,Yasnaya Polyana,PL,en,54.069504,37.523205,Q749556,,2018-03-21,MG,2022-05-03,ReadActor
SP0217,PL0230,Welyki Sorotschynzi,PL,en,50.019808,33.941673,Q1666449,,2018-03-21,MG,2022-05-03,ReadActor
SP0218,PL0231,Votkinsk,PL,en,57.040944,53.97693,,,2018-03-23,MG,2020-04-05,DP
SP0219,PL0232,Zhuji,PL,en,29.708692,120.246863,,,2018-03-23,MG,2020-04-05,DP
SP0220,PL0233,Kansas City,PL,en,39.099727,-94.578567,,,2018-03-29,MG,2020-04-05,DP
SP0221,PL0234,Portland,PL,en,45.523062,-122.676482,,,2018-03-29,MG,2020-04-05,DP
SP0222,PL0235,Kimry,PL,en,56.860398,37.359892,,,2018-03-29,MG,2020-04-05,DP
SP0223,PL0236,Ghent,PL,en,51.054342,3.717424,,,2018-04-03,MG,2020-04-05,DP
SP0224,PL0237,Lille,PL,en,50.62925,3.057256,,,2018-04-03,MG,2020-04-05,DP
SP0225,PL0238,Washington D.C.,PL,en,38.907192,-77.036871,,,2018-04-03,MG,2020-04-05,DP
SP0226,PL0239,Anhui,PL,en,30.600677,117.9249,,,2018-04-03,MG,2020-04-05,DP
SP0227,PL0240,Frankfurt,PL,en,50.110922,8.682127,,,2018-04-03,MG,2020-04-05,DP
SP0228,PL0241,Hainan,PL,en,19.566395,109.949686,,,2018-04-03,MG,2020-04-05,DP
SP0229,PL0242,Příbor,PL,en,49.640936,18.144996,,,2018-04-03,MG,2020-04-05,DP
SP0230,PL0243,Croydon,PL,en,51.376165,-0.098234,,,2018-04-05,MG,2020-04-05,DP
SP0231,PL0244,Stratford-upon-Avon,PL,en,52.19173,-1.708298,,,2018-04-06,MG,2020-04-05,DP
SP0232,PL0245,Kingston upon Thames,PL,en,51.41233,-0.300689,,,2018-04-06,MG,2020-04-05,DP
SP0233,PL0246,Rouen,PL,en,49.443232,1.099971,,,2018-04-06,MG,2020-04-05,DP
SP0234,PL0247,Tourville-sur-Arques,PL,en,49.858616,1.095163,,,2018-04-06,MG,2020-04-05,DP
SP0235,PL0248,Calcutta,PL,en,22.572646,88.363895,Q1348,,2018-04-09,MG,2022-05-03,ReadActor
SP0236,PL0249,Novospasovka,PL,en,48.911471,40.456788,,,2018-05-08,MG,2020-04-05,DP
SP0237,PL0250,Lamar,PL,en,37.495048,-94.276615,,,2018-05-08,MG,2020-04-05,DP
SP0238,PL0251,Hannibal,PL,en,36.151664,-95.991926,,,2018-05-08,MG,2020-04-05,DP
SP0239,PL0252,Linchuan,PL,en,27.934572,116.312166,,,2018-05-08,MG,2020-04-05,DP
SP0240,PL0253,Jiujiang,PL,en,29.705077,116.00193,,,2018-05-14,MG,2020-04-05,DP
SP0241,PL0254,Sète,PL,en,43.407876,3.700822,,,2018-05-15,MG,2020-04-05,DP
SP0242,PL0255,Groot-Zundert,PL,en,51.469834,4.654992,,,2018-05-15,MG,2020-04-05,DP
SP0243,PL0256,Metz,PL,en,49.119309,6.175716,,,2018-05-15,MG,2020-04-05,DP
SP0244,PL0257,Nantes,PL,en,47.218371,-1.553621,,,2018-05-15,MG,2020-04-05,DP
SP0245,PL0258,Trmanje,PL,en,42.647545,19.344489,Q3539772,,2018-05-15,MG,2022-05-03,ReadActor
SP0246,PL0259,Ramsgate,PL,en,51.335545,1.419895,,,2018-05-17,MG,2020-04-05,DP
SP0247,PL0260,Konstantinovo,PL,en,54.861476,39.601857,,,2018-05-17,MG,2020-04-05,DP
SP0248,PL0261,Zima (Siberia),PL,en,53.922585,102.042387,,,2018-05-17,MG,2020-04-05,DP
SP0249,PL0262,Strelkovka,PL,en,55.002389,36731.0,,,2018-05-22,MG,2020-04-05,DP
SP0250,PL0263,Plzeň,PL,en,49.738431,13.373637,,,2018-05-22,MG,2020-04-05,DP
SP0251,PL0264,Štramberk,PL,en,49.591805,18.117421,,,2018-05-22,MG,2020-04-05,DP
SP0252,PL0265,Guiyang,PL,en,26.647661,106.630153,,,2018-05-22,MG,2020-04-05,DP
SP0253,PL0266,Zibo,PL,en,36.813546,118.055019,,,2018-06-04,MG,2020-04-05,DP
SP0254,PL0267,Tupelo,PL,en,34.257607,-88.703386,,,2018-06-04,MG,2020-04-05,DP
SP0255,PL0268,Hailey,PL,en,43.519629,-114.315324,,,2018-06-05,MG,2020-04-05,DP
SP0256,PL0269,Boston,PL,en,42.360082,-71.05888,,,2018-06-05,MG,2020-04-05,DP
SP0257,PL0270,Gudalovka,PL,en,49.307427,19.937017,,,2018-06-05,MG,2020-04-05,DP
SP0258,PL0271,Zhytomyr,PL,en,50.25465,28.658667,,,2018-06-05,MG,2020-04-05,DP
SP0259,PL0272,Athens,PL,en,37.98381,23.727539,,,2018-06-06,MG,2020-04-05,DP
SP0260,PL0273,St. Thomas,PL,en,18.338096,-64.894095,,,2018-06-11,MG,2020-04-05,DP
SP0261,PL0274,Málaga,PL,en,36.721274,-4.421399,,,2018-06-11,MG,2020-04-05,DP
SP0262,PL0275,Guilin,PL,en,25.234479,110.179953,,,2018-06-11,MG,2020-04-05,DP
SP0263,PL0276,Genoa,PL,en,44.40565,8.946256,,,2018-06-11,MG,2020-04-05,DP
SP0264,PL0277,Kaliningrad,PL,en,54.710426,20.452214,,,2018-06-12,MG,2020-04-05,DP
SP0265,PL0278,Peshawar,PL,en,34.015137,71.524915,,,2018-06-12,MG,2020-04-05,DP
SP0266,PL0279,Engels,PL,en,51.47533,46.113677,,,2018-06-12,MG,2020-04-05,DP
SP0267,PL0280,Wangcheng,PL,en,28.353912,112.833836,,,2018-06-19,MG,2020-04-05,DP
SP0268,PL0281,Albany NY,PL,en,42.652579,-73.756232,,,2018-06-19,MG,2020-04-05,DP
SP0269,PL0282,Fuente Vaqueros,PL,en,37.219244,-3.783402,,,2018-06-28,MG,2020-04-05,DP
SP0270,PL0283,Stockholm,PL,en,59.329323,18.068581,,,2018-07-03,MG,2020-04-05,DP
SP0271,PL0284,Parral,PL,en,-36.140648,-71.822753,,,2018-07-04,MG,2020-04-05,DP
SP0272,PL0285,Röcken,PL,en,51.241535,12.116507,,,2018-07-04,MG,2020-04-05,DP
SP0273,PL0286,Osnabrück,PL,en,52.279911,8.047179,,,2018-05-28,MG,2020-04-05,DP
SP0274,PL0287,Limoges,PL,en,45.833619,1.261105,,,2018-05-28,MG,2020-04-05,DP
SP0275,PL0288,Chuguyev,PL,en,49.836316,36.681312,Q889618,,2018-05-28,MG,2022-05-03,ReadActor
SP0276,PL0289,Charleville,PL,en,49.762085,4.726096,,,2018-05-28,MG,2020-04-05,DP
SP0277,PL0290,Tikhvin,PL,en,59.644386,33.541032,,,2018-05-28,MG,2020-04-05,DP
SP0278,PL0291,Clamecy,PL,en,47.459605,3.518769,,,2018-05-28,MG,2020-04-05,DP
SP0279,PL0292,Irkutsk,PL,en,52.286974,104.305018,,,2018-05-30,MG,2020-04-05,DP
SP0280,PL0293,Heidenheim,PL,en,48.689396,10.161095,,,2018-06-01,MG,2020-04-05,DP
SP0281,PL0294,Geneva,PL,en,46.204391,6.143158,,,2018-06-01,MG,2020-04-05,DP
SP0282,PL0295,Monmouthshire,PL,en,51.81161,-2.716342,,,2018-06-01,MG,2020-04-05,DP
SP0283,PL0296,Nemyriv,PL,en,48.974952,28.847408,,,2018-07-04,MG,2020-04-05,DP
SP0284,PL0297,Bilopillia,PL,en,51.149402,34.317522,,,2018-07-09,MG,2020-04-05,DP
SP0285,PL0298,Kunming,PL,en,24.880095,102.832891,,,2018-07-10,MG,2020-04-05,DP
SP0286,PL0299,La Bruyère,PL,en,50.527995,4.818628,,,2018-07-17,MG,2020-04-05,DP
SP0287,PL0300,Dong'an,PL,en,26.394403,111.314117,,,2018-07-30,MG,2020-04-05,DP
SP0288,PL0301,Slawno,PL,en,54.36262,16.67836,Q161967,,2018-07-17,MG,2022-05-03,ReadActor
SP0289,PL0302,Zoucheng,PL,en,35.405184,117.003743,,,2018-07-20,MG,2020-04-05,DP
SP0290,PL0303,Zavosse,PL,en,53.289514,26.099846,Q3493620,,2018-07-20,MG,2022-05-03,ReadActor
SP0291,PL0304,Atlanta,PL,en,33.748995,-84.387982,,,2018-07-20,MG,2020-04-05,DP
SP0292,PL0305,La Brède,PL,en,44.68148,-0.527753,,,2018-07-23,MG,2020-04-05,DP
SP0293,PL0306,Leipzig,PL,en,51.3397,12.3731,,,2018-05-31,DM,2020-04-05,DP
SP0294,PL0307,Linares,PL,en,38.083333,-3.633333,,,2018-05-31,DM,2020-04-05,DP
SP0295,PL0308,Horsham,PL,en,51.063751,-0.327,,,2018-05-31,DM,2020-04-05,DP
SP0296,PL0309,Huzhou,PL,en,30.87232,120.098053,,It’s old name was Wuxing.,2018-06-01,DM,2020-04-05,DP
SP0297,PL0310,Jiangxi Province,PL,en,27.28597,116.01609,,,2018-06-01,DM,2020-04-05,DP
SP0298,PL0311,Guilin,PL,en,25.2344,110.1799,,,2018-06-01,DM,2020-04-05,DP
SP0299,PL0312,Chicago,PL,en,41.8781,87.6298,Q1297,,2018-08-06,DM,2022-05-03,ReadActor
SP0300,PL0313,Vyoshenskaya,PL,en,49.6316,41.7147,Q2637584,,2018-08-06,DM,2022-05-03,ReadActor
SP0301,PL0314,Hejin,PL,en,35.596,110.712,,,2018-11-15,DM,2020-04-05,DP
SP0302,PL0315,Litomyšl,PL,en,49.87,16.312778,,,2018-11-17,DM,2020-04-05,DP
SP0303,PL0316,Haining,PL,en,30.5107,120.6808,,,2019-01-07,DM,2020-04-05,DP
SP0304,PL0317,Blankenburg,PL,en,51.8164,10.9773,,,2019-01-08,DM,2020-04-05,DP
SP0305,PL0318,Salinas,PL,en,36.6777,121.6555,Q488125,,2019-01-08,DM,2022-05-03,ReadActor
SP0306,PL0319,Letychiv,PL,en,49.385,27.6242,,,2019-01-08,DM,2020-04-05,DP
SP0307,PL0320,Friend,PL,en,40.6536,97.2862,,,2019-01-08,DM,2020-04-05,DP
SP0308,PL0321,Dobrush,PL,en,52.388249,31.342155,,,2018-05-31,DM,2020-04-05,DP
SP0309,PL0322,Pamplona,PL,en,42.81687,-1.64323,,,2018-05-31,DM,2020-04-05,DP
SP0310,PL0323,Lviv,PL,en,49.83826,24.02324,,,2018-05-31,DM,2020-04-05,DP
SP0311,PL0324,Marbach am Necker,PL,en,48.9396,9.2646,,,2018-05-31,DM,2020-04-05,DP
SP0312,PL0325,Tokyo,PL,en,35.6895,139.6917,,,2018-05-31,DM,2020-04-05,DP
SP0313,PL0326,Meishan,PL,en,30.0773,103.8484,,,2019-01-08,DM,2020-04-05,DP
SP0314,PL0327,Krasnoyarsk,PL,en,56.0153,92.8932,,,2019-01-08,DM,2020-04-05,DP
SP0315,PL0328,Shakhovskoye,PL,en,52.625833,47.268611,,,2019-01-08,DM,2020-04-05,DP
SP0316,PL0351,Milan (OH),PL,en,41.293333,-82.601389,,,2018-04-26,WH,2020-04-05,DP
SP0317,PL0352,Jianyang,PL,en,30.24,104.32,,,2018-05-03,WH,2020-04-05,DP
SP0318,PL0353,Leiden,PL,en,52.166667,4.483333,,,2018-06-21,WH,2020-04-05,DP
SP0319,PL0354,Mengzhou,PL,en,34.907315,112.791401,,,2018-06-21,WH,2020-04-05,DP
SP0320,PL0355,Yuyao,PL,en,30.037192,121.154634,,,2018-07-09,WH,2020-04-05,DP
SP0321,PL0356,Chuansha Xian,PL,en,31.301395,121.516652,,,2018-07-09,WH,2020-04-05,DP
SP0322,PL0357,Nanchang,PL,en,28.682892,115.858197,,,2018-07-10,WH,2020-04-05,DP
SP0323,PL0358,Sichuan Second Prison,PL,en,29.58921,106.538559,,The Sichuan Second Prison is now called Chongqing City Prison. PS00409,2018-08-15,WH,2020-04-05,DP
SP0324,PL0359,Heishan,PL,en,41.666028,122.123443,,,2018-01-26,OS,2020-04-05,DP
SP0325,PL0400,Pingyao,PL,en,37.154444,112.143472,,,2018-03-13,WH,2020-04-05,DP
SP0326,PL0401,Skien,PL,en,59.2086,9.60979,,,2018-08-16,MG,2020-04-05,DP
SP0327,PL0402,Ann Arbor,PL,en,42.280827,-83.743034,,,2018-10-16,LH,2020-04-05,DP
SP0328,PL0403,Milano,PL,en,45.46362,9.18812,Q490,,2018-10-19,MG,2022-05-03,ReadActor
SP0329,PL0404,Leipzig,PL,en,51.339695,12.373075,,,2018-10-26,MG,2020-04-05,DP
SP0330,PL0405,Zamość,PL,en,50.717369,23.25276,,,2018-10-26,MG,2020-04-05,DP
SP0331,PL0406,Laoting,PL,en,22.88778,120.46356,,,2018-10-26,MG,2020-04-05,DP
SP0332,PL0407,Pingchang,PL,en,22.61822,120.56601,,,2018-10-26,MG,2020-04-05,DP
SP0333,PL0408,Weddern,PL,en,51.86854,7.30796,,,2018-10-26,MG,2020-04-05,DP
SP0334,PL0409,Gallarta,PL,en,43.32084,-3.07258,,,2018-10-26,MG,2020-04-05,DP
SP0335,PL0410,Shuiyuan county,PL,en,23.84967,110.40083,,,2018-11-01,MG,2020-04-05,DP
SP0336,PL0411,Ostrogozhsk,PL,en,50.86079,39.0827,,,2018-11-01,MG,2020-04-05,DP
SP0337,PL0412,Voronezh,PL,en,51.675495,39.208881,,,2018-11-06,MG,2020-04-05,DP
SP0338,PL0413,Caprese,PL,en,43.64096,11.98596,,,2018-11-06,MG,2020-04-05,DP
SP0339,PL0414,Alloway,PL,en,55.43109,-4.6331,,,2018-11-06,MG,2020-04-05,DP
SP0340,PL0415,Hubei,PL,en,37.59857,114.60758,,,2018-11-09,MG,2020-04-05,DP
SP0341,PL0416,Warszawa,PL,en,52.229675,21.01223,Q270,,2018-11-09,MG,2022-05-03,ReadActor
SP0342,PL0417,Pescasseroli,PL,en,41.80825,13.78958,,,2018-11-09,MG,2020-04-05,DP
SP0343,PL0418,Vinci,PL,en,43.77985,10.92344,,,2018-11-14,MG,2020-04-05,DP
SP0344,PL0419,Saint-Germain-en-Laye,PL,en,48.89875,2.09359,,,2018-11-18,MG,2020-04-05,DP
SP0345,PL0420,Baozhong Township,PL,en,23.69329,120.30849,,,2018-11-19,MG,2020-04-05,DP
SP0346,PL0421,Salamis Island,PL,en,37.96421,23.49645,Q202422,,2018-11-21,MG,2022-05-03,ReadActor
SP0347,PL0422,Eleusis,PL,en,38.043228,23.54212,Q204905,,2018-11-21,MG,2022-05-03,ReadActor
SP0348,PL0423,Yangjiang,PL,en,21.857958,111.982231,,,2018-11-21,MG,2020-04-05,DP
SP0349,PL0424,Mâcon,PL,en,46.303669,4.832227,,,2018-11-27,MG,2020-04-05,DP
SP0350,PL0425,Coventry,PL,en,52.406822,-1.519693,,,2018-11-27,MG,2020-04-05,DP
SP0351,PL0426,Kybartai,PL,en,54.642544,22.751174,,,2018-11-27,MG,2020-04-05,DP
SP0352,PL0427,Tangshan,PL,en,39.630867,118.180191,,,2018-11-27,MG,2020-04-05,DP
SP0353,PL0428,Banzai,PL,en,25.92448,118.27899,,,2018-12-06,MG,2020-04-05,DP
SP0354,PL0429,Tailai,PL,en,46.390362,123.409981,,,2018-12-06,MG,2020-04-05,DP
SP0355,PL0430,Jiangyin,PL,en,31.920658,120.284935,,,2018-12-11,MG,2020-04-05,DP
SP0356,PL0431,Wuyishan,PL,en,27.756647,118.035309,,,2018-12-11,MG,2020-04-05,DP
SP0357,PL0432,San Fransisco,PL,en,37.774929,-122.419418,,,2018-12-11,MG,2020-04-05,DP
SP0358,PL0433,Wanzai,PL,en,22.91387,120.33538,,,2018-12-11,MG,2020-04-05,DP
SP0359,PL0434,Rugao,PL,en,22.74024,120.49042,,,2018-12-11,MG,2020-04-05,DP
SP0360,PL0435,Tschita,PL,en,52.03861,113.50425,,,2018-12-15,MG,2020-04-05,DP
SP0361,PL0436,Livorno,PL,en,43.551891,10.30784,,,2018-12-17,MG,2020-04-05,DP
SP0362,PL0437,Lavaur,PL,en,43.698792,1.81501,,,2018-12-17,MG,2020-04-05,DP
SP0363,PL0438,Brno,PL,en,49.195061,16.606836,,,2018-12-30,MG,2020-04-05,DP
SP0364,PL0439,Lutsk,PL,en,50.747234,25.325382,,,2018-12-30,MG,2020-04-05,DP
SP0365,PL0440,Gerasimovka,PL,en,52.70488,51.50281,,,2018-12-30,MG,2020-04-05,DP
SP0366,PL0441,Ulm,PL,en,48.39962,9.99661,,,2019-01-08,MG,2020-04-05,DP
SP0367,PL0442,Zhongxiang,PL,en,31.16368,112.57924,,,2019-02-11,MG,2020-04-05,DP
SP0368,PL0443,Iserlohn,PL,en,51.372971,7.69951,,,2019-02-18,MG,2020-04-05,DP
SP0369,PL0444,Baku,PL,en,40.409264,49.867092,,,2019-02-19,MG,2020-04-05,DP
SP0370,PL0445,Gaoyou,PL,en,32.77938,119.43173,,,2019-03-08,MG,2020-04-05,DP
SP0371,PL0446,Swansea,PL,en,51.621578,-3.94337,,,2019-03-09,MG,2020-04-05,DP
SP0372,PL0500,Коsа (Kosinsky District),PL,en,59.94537,54.99187,,,2018-11-04,WH,2020-04-05,DP
SP0373,PL0501,Liling,PL,en,27.65008,113.492325,,,2018-11-04,WH,2020-04-05,DP
SP0374,PL0502,Pucheng (Shaanxi),PL,en,34.957,109.58,,,2018-11-04,WH,2020-04-05,DP
SP0375,PL0503,Hubei,PL,en,30.737812,112.238403,,,2018-11-04,WH,2020-04-05,DP
SP0376,PL0504,Lliulin (Shanxi),PL,en,37.430833,110.889167,,,2018-11-04,WH,2020-04-05,DP
SP0377,PL0505,Shanxi,PL,en,37.242565,111.856857,,,2018-11-04,WH,2020-04-05,DP
SP0378,PL0506,Yuxi,PL,en,24.3473,102.5272,,,2018-11-04,WH,2020-04-05,DP
SP0379,PL0507,Xiaxian,PL,en,35.138333,111.220833,,,2018-11-04,WH,2020-04-05,DP
SP0380,PL0508,Gao’an,PL,en,28.441,115.361,Q1229428,,2018-11-04,WH,2022-05-03,ReadActor
SP0381,PL0509,Jiangxi,PL,en,27.087456,114.904221,,,2018-11-04,WH,2020-04-05,DP
SP0382,PL0510,Wuhe,PL,en,33.128,117.879,,,2018-11-06,WH,2020-04-05,DP
SP0383,PL0511,Shanyin,PL,en,39.5262,112.817,,,2018-11-06,WH,2020-04-05,DP
SP0384,PL0512,Xiangtan,PL,en,27.7801,112.9506,,,2018-11-06,WH,2020-04-05,DP
SP0385,PL0513,Yunlin,PL,en,23.70489,120.47607,,,2018-11-06,WH,2020-04-05,DP
SP0386,PL0514,Salzburg,PL,en,47.80949,13.05501,,,2018-11-06,WH,2020-04-05,DP
SP0387,PL0515,Riga,PL,en,56.94965,24.105186,,,2018-11-07,WH,2020-04-05,DP
SP0388,PL0516,Melitopol,PL,en,46.85098,35.3604,,,2018-11-07,WH,2020-04-05,DP
SP0389,PL0517,Sora (Lazio),PL,en,41.71667,13.6176,,,2018-11-07,WH,2020-04-05,DP
SP0390,PL0518,Bologna,PL,en,44.494888,11.342616,,,2018-11-07,WH,2020-04-05,DP
SP0391,PL0519,Vannes,PL,en,47.658237,-2.760847,,,2018-11-07,WH,2020-04-05,DP
SP0392,PL0520,Yamaguchi,PL,en,34.178497,131.473724,,,2018-11-08,WH,2020-04-05,DP
SP0393,PL0521,Kashiwazaki,PL,en,37.3679,138.55453,,,2018-11-08,WH,2020-04-05,DP
SP0394,PL0522,Gura Ocniței,PL,en,44.94125,25.56605,,,2018-11-08,WH,2020-04-05,DP
SP0395,PL0523,Zhenjiang,PL,en,32.188,119.424,,,2018-11-10,WH,2020-04-05,DP
SP0396,PL0524,Ningdu,PL,en,26.466667,116.016667,,,2018-11-10,WH,2020-04-05,DP
SP0397,PL0525,Hamhung,PL,en,39.916667,127.533333,,,2018-11-11,WH,2020-04-05,DP
SP0398,PL0526,Fuyu,PL,en,44.987,126.025,,,2018-11-11,WH,2020-04-05,DP
SP0399,PL0527,Chusovoy,PL,en,58.29405,57.82407,,,2018-11-14,WH,2020-04-05,DP
SP0400,PL0528,Khotsimsk,PL,en,53.40843,32.57937,,,2018-11-14,WH,2020-04-05,DP
SP0401,PL0529,Liaoyuan,PL,en,42.883333,125.15,,,2018-11-14,WH,2020-04-05,DP
SP0402,PL0530,Odense,PL,en,55.395833,10.388611,,,2018-11-16,WH,2020-04-05,DP
SP0403,PL0531,Kherson Oblast,PL,en,46.68301,33.40959,,,2018-11-24,WH,2020-04-05,DP
SP0404,PL0532,Moryntsi,PL,en,49.26136,31.00038,,,2018-11-24,WH,2020-04-05,DP
SP0405,PL0533,Freiburg,PL,en,47.999008,7.842104,,,2018-11-25,WH,2020-04-05,DP
SP0406,PL0534,Saarbrücken,PL,en,49.234779,6.9944,,,2018-11-25,WH,2020-04-05,DP
SP0407,PL0535,Vigo,PL,en,42.240601,-8.720727,,,2018-11-25,WH,2020-04-05,DP
SP0408,PL0536,Luzarches,PL,en,49.11323,2.42228,,,2018-11-25,WH,2020-04-05,DP
SP0409,PL0537,Rimini,PL,en,44.060921,12.5663,,,2018-11-25,WH,2020-04-05,DP
SP0410,PL0538,Bobai,PL,en,22.2758,109.972,,,2018-12-15,WH,2020-04-05,DP
SP0411,PL0539,Heilongjiang,PL,en,48.494961,127.970032,,,2018-12-15,WH,2020-04-05,DP
SP0412,PL0540,Laizhou,PL,en,37.179167,119.933333,,,2018-12-16,WH,2020-04-05,DP
SP0413,PL0541,Yantai,PL,en,37.4644,121.4478,,,2018-12-16,WH,2020-04-05,DP
SP0414,PL0542,Quanjiao,PL,en,32.044167,118.075278,,,2018-12-22,WH,2020-04-05,DP
SP0415,PL0543,Xingguo,PL,en,26.333889,115.346111,,,2018-12-23,WH,2020-04-05,DP
SP0416,PL0544,Xiangxiang,PL,en,27.718649,112.550229,,,2018-12-24,WH,2020-04-05,DP
SP0417,PL0545,Huai’an,PL,en,33.555605,119.112818,Q57818,It’s old name was Huaiyin.,2018-12-24,WH,2022-05-03,ReadActor
SP0418,PL0546,Linhai,PL,en,28.84,121.11,,,2019-01-26,WH,2020-04-05,DP
SP0419,PL0547,Haining,PL,en,30.441944,120.573056,,,2019-01-26,WH,2020-04-05,DP
SP0420,PL0548,Jiner,PL,en,31.6153,107.654,,,2019-01-31,LH,2020-04-05,DP
SP0421,PL0549,Fuzhou,PL,en,26.15,119.283333,,,2019-01-28,WH,2020-04-05,DP
SP0422,PL0550,Wu’an,PL,en,36.698,114.203,Q1375613,,2019-02-17,WH,2022-05-03,ReadActor
SP0423,PL0551,Xiangshan,PL,en,29.475,121.866,,,2019-02-17,WH,2020-04-05,DP
SP0424,PL0552,Cixi,PL,en,30.166667,121.233333,,,2019-02-17,WH,2020-04-05,DP
SP0425,PL0553,Dengta,PL,en,41.433333,123.333333,,,2019-01-28,WH,2020-04-05,DP
SP0426,PL0554,Pingxiang,PL,en,27.623,113.8545,,,2019-02-23,WH,2020-04-05,DP
SP0427,PL0555,Rui’an,PL,en,27.783333,120.625,Q713357,,2019-02-23,WH,2022-05-03,ReadActor
SP0428,PL0556,Tongcheng,PL,en,31.0358,116.9367,,,2019-02-24,WH,2020-04-05,DP
SP0429,PL0557,Taicang,PL,en,31.564,121.174,,,2019-02-24,WH,2020-04-05,DP
SP0430,PL0558,Donghai,PL,en,34.552,118.763,,,2019-02-24,WH,2020-04-05,DP
SP0431,PL0559,Wuyuan,PL,en,29.248,117.862,,,2019-02-24,WH,2020-04-05,DP
SP0432,PL0560,Enshi,PL,en,30.291111,109.475,,,2019-03-24,WH,2020-04-05,DP
SP0433,PL0561,Zhaoyuan,PL,en,37.361111,120.398806,,,2019-03-24,WH,2020-04-05,DP
SP0434,PL0562,Lixian,PL,en,29.631807,111.760762,,"This place is in Hunan, and is written in 澧县.",2019-05-02,WH,2020-04-05,DP
SP0435,PL0600,Pilsen,PL,en,49.746841,13.37699,Q43453,,2019-03-08,LH,2022-05-03,ReadActor
SP0436,PL0999,unknown,PL,en,0.0,0.0,,,2018-11-13,MG,2020-04-05,DP
SP0437,,private school,L,en,0.0,0.0,,,2020-12-08,MG,2020-12-19,MG
SP0438,,on a train,L,en,0.0,0.0,,,2020-12-11,MG,2020-12-19,MG
SP0439,,factory,L,en,0.0,0.0,,,2020-12-11,MG,2020-12-19,MG
SP0440,,Xiamen,PL,en,24.479834,118.089424,,,2020-12-11,MG,2020-12-11,MG
SP0441,,reading room,L,en,0.0,0.0,,,2020-12-14,MG,2020-12-14,MG
SP0442,,at home,L,en,0.0,0.0,,,2020-12-14,MG,2020-12-14,MG
SP0443,,state prison farm,L,en,0.0,0.0,,,2020-12-14,MG,2020-12-14,MG
SP0444,,labor camp,L,en,0.0,0.0,,,2020-12-14,MG,2020-12-14,MG
SP0445,,office,L,en,0.0,0.0,,,2020-12-19,MG,2020-12-19,MG
SP0446,,school,L,en,0.0,0.0,,,2020-12-19,MG,2020-12-19,MG
SP0447,,Tian'anmen Square,L,en,39.9042,116.407396,Q164055,,2021-01-05,MG,2022-05-03,ReadActor
SP0448,,Three Gorges Dam,L,en,30.81329,111.014292,Q12514,,2021-01-05,MG,2022-05-03,ReadActor
SP0449,,Bolivia,PL,en,-16.290154,-63.588654,,,2021-01-05,MG,2021-01-12,MG
SP0450,,Qingdao,PL,en,36.091930,120.328056,,,2021-01-09,MG,2021-01-09,MG
SP0451,L0004,session of international intelligence experts,L,en,0.0,0.0,,,2020-02-24,MG,2022-04-06,DP
SP0452,L0005,rural middle school,L,en,0.0,0.0,,,2020-05-28,MG,2022-04-06,DP
SP0453,L0010,the State,L,en,0.0,0.0,,,2021-03-12,MG,2022-04-06,DP
SP0454,L0011,restaurant,L,en,0.0,0.0,,,2021-06-12,MG,2022-04-06,DP
SP0455,L0012,lecture hall,L,en,0.0,0.0,,,2021-06-12,MG,2022-04-06,DP
SP0456,L0013,zhang li river,L,en,0.0,0.0,,,2021-06-14,MG,2022-04-06,DP
SP0457,L0014,university,L,en,0.0,0.0,,,2021-07-09,MG,2022-04-06,DP
SP0458,PL0599,Alcalá de Henares,PL,en,40.481979,-3.363542,,,2019-09-12,MG,2022-04-06,DP
SP0459,PL0601,Mumbai,PL,en,19.075983,72.877655,,,2019-09-13,MG,2022-04-06,DP
SP0460,PL0603,Hwadae County,PL,en,40.848019,129.648393,,,2019-10-14,MG,2022-04-06,DP
SP0461,PL0604,Tongxiang,PL,en,30.762080,120.750710,,,2019-11-08,MG,2022-04-06,DP
SP0462,PL0605,Lgov,PL,en,51.692020,35.284620,,,2019-11-08,MG,2022-04-06,DP
SP0463,PL0606,Tangyin,PL,en,35.914520,114.351500,,,2019-12-12,MG,2022-04-06,DP
SP0464,PL0607,Kaifeng,PL,en,34.786072,114.348152,,,2019-12-12,MG,2022-04-06,DP
SP0465,PL0608,Toronto,PL,en,43.653225,-79.383186,,,2019-12-12,MG,2022-04-06,DP
SP0466,PL0609,Nîmes,PL,en,43.834591,4.360860,,,2019-12-12,MG,2022-04-06,DP
SP0467,PL0610,Rostov Oblast,PL,en,47.221809,39.720261,,,2019-12-17,MG,2022-04-06,DP
SP0468,PL0611,Dublin,PL,en,53.349804,-6.260310,,,2020-01-06,MG,2022-04-06,DP
SP0469,PL0612,Compton,PL,en,50.472610,-3.598290,,,2020-01-15,MG,2022-04-06,DP
SP0470,PL0614,Zhao County,PL,en,37.749130,114.768940,,,2020-02-06,MG,2022-04-06,DP
SP0471,PL0615,Yangquan,PL,en,37.869968,113.570007,,,2020-02-14,MG,2022-04-06,DP
SP0472,PL0616,Springdale,PL,en,40.541470,-79.777810,,,2020-02-14,MG,2022-04-06,DP
SP0473,PL0617,Suqian,PL,en,30.187500,119.391670,,,2020-05-25,MG,2022-04-06,DP
SP0474,PL0618,Fengxian,PL,en,34.697830,116.593643,,,2020-05-25,MG,2022-04-06,DP
SP0475,PL0619,Haian,PL,en,32.548060,120.448600,,,2020-05-28,MG,2022-04-06,DP
SP0476,PL0630,Huanggang,PL,en,24.934650,121.080240,,,2020-06-18,MG,2022-04-06,DP
SP0477,PL0635,Wiesbaden,PL,en,50.078217,8.239761,,,2020-06-29,MG,2022-04-06,DP
SP0478,PL0636,Zhucheng,PL,en,35.989960,119.380090,,,2020-06-30,MG,2022-04-06,DP
SP0479,PL0637,Celle,PL,en,52.621922,10.078580,,,2020-08-07,MG,2022-04-06,DP
SP0480,PL0638,Usmanka,PL,en,52.823940,51.698520,,,2021-01-16,MG,2022-04-06,DP
SP0481,PL0639,Munich,PL,en,48.135124,11.581981,,,2021-02-24,MG,2022-04-06,DP
SP0482,PL0640,Honolulu,PL,en,21.306944,-157.858337,,,2021-03-03,MG,2022-04-06,DP
SP0483,PL0641,Wenzhou,PL,en,28.002701,120.647919,,,2021-03-08,MG,2022-04-06,DP
SP0484,PL0642,Ningxiang,PL,en,28.277481,112.551888,,,2021-03-08,MG,2022-04-06,DP
SP0485,PL0643,Zhejiang,PL,en,29.159849,120.326447,,,2021-03-08,MG,2022-04-06,DP
SP0486,PL0644,Shantou,PL,en,23.360821,116.67749,,,2021-03-09,MG,2022-04-06,DP
SP0487,PL0645,Haiphong,PL,en,20.844912,106.688087,,,2021-03-09,MG,2022-04-06,DP
SP0488,PL0646,Guangxi,PL,en,23.64407,108.26651,,,2021-03-10,MG,2022-04-06,DP
SP0489,PL0647,Nanyang,PL,en,32.990665,112.528305,,,2021-03-10,MG,2022-04-06,DP
SP0490,PL0648,Motihari,PL,en,26.65617,84.918182,,,2021-03-12,MG,2022-04-06,DP
SP0491,PL0649,Bunhill,PL,en,51.52709,-0.09683,,,2021-03-15,MG,2022-04-06,DP
SP0492,PL0650,Tibet,PL,en,30.15336,88.787865,,,2021-03-18,MG,2022-04-06,DP
SP0493,PL0651,Ljubljana,PL,en,46.056946,14.505752,,,2021-03-18,MG,2022-04-06,DP
SP0494,PL0652,Souk Ahras,PL,en,36.28553,7.96276,,,2021-03-18,MG,2022-04-06,DP
SP0495,PL0653,Woolsthorpe-by-Colsterworth,PL,en,52.809551,-0.6356,,,2021-03-23,MG,2022-04-06,DP
SP0496,PL0654,Xuzhou,PL,en,34.26091,117.191078,,,2021-04-05,MG,2022-04-06,DP
SP0497,PL0655,Jilin,PL,en,43.851921,126.548103,,,2021-04-05,MG,2022-04-06,DP
SP0498,PL0656,Anqing,PL,en,30.49996,117.050003,,,2021-04-06,MG,2022-04-06,DP
SP0499,PL0657,Illinois,PL,en,40.633125,-89.398529,,,2021-04-06,MG,2022-04-06,DP
SP0500,PL0658,Minehead,PL,en,51.20554,-3.47895,,,2021-05-05,MG,2022-04-06,DP
SP0501,PL0659,Glendale,PL,en,33.538559,-112.183701,,,2021-06-07,MG,2022-04-06,DP
SP0502,PL0660,Cambridge,PL,en,52.205338,0.121817,,,2021-06-12,MG,2022-04-06,DP
SP0503,PL0661,Funchal,PL,en,32.666931,-16.924055,,,2021-06-14,MG,2022-04-06,DP
SP0504,PL0662,Bazentin,PL,en,50.030790,2.762410,,,2021-06-14,MG,2022-04-06,DP
SP0505,PL0663,Venice,PL,en,45.440845,12.315515,,,2021-06-14,MG,2022-04-06,DP
SP0506,PL0664,Bayman,PL,en,34.684990,67.298180,,,2021-06-15,MG,2022-04-06,DP
SP0507,PL0665,Wugong,PL,en,25.065800,121.454870,,,2021-06-16,MG,2022-04-06,DP
SP0508,PL0666,Lijiang,PL,en,26.799999,100.266579,,,2021-06-21,MG,2022-04-06,DP
SP0509,PL0667,Langar,PL,en,52.903069,-0.924820,,,2021-06-22,MG,2022-04-06,DP
SP0510,PL0668,Columbia,PL,en,34.000710,-81.034813,,,2021-06-22,MG,2022-04-06,DP
SP0511,PL0669,Petrovichi,PL,en,55.355210,27.441310,,,2021-06-23,MG,2022-04-06,DP
SP0512,PL0670,Verkhnie Aremzyani,PL,en,58.309220,68.590330,,,2021-06-23,MG,2022-04-06,DP
SP0513,PL0671,Tengzhou,PL,en,22.686359,109.265228,,,2021-06-23,MG,2022-04-06,DP
SP0514,PL0672,Landshut,PL,en,48.544193,12.146853,,,2021-06-23,MG,2022-04-06,DP
SP0515,PL0673,Meßkirch,PL,en,47.993210,9.114220,,,2021-06-23,MG,2022-04-06,DP
SP0516,PL0674,Yongle,PL,en,34.530450,108.931680,,,2021-06-23,MG,2022-04-06,DP
SP0517,PL0675,'s-Hertogenbosch,PL,en,51.697815,5.303675,,,2021-07-02,MG,2022-04-06,DP
SP0518,PL0676,Knoxville,PL,en,35.960636,-83.920738,,,2021-07-09,MG,2022-04-06,DP
SP0519,PL0677,Yixing,PL,en,24.060390,120.534286,,,2021-07-09,MG,2022-04-06,DP
SP0520,PL0678,Circle,PL,en,47.416359,-105.588440,,,2021-07-09,MG,2022-04-06,DP
SP0521,PL0679,Oxford,PL,en,51.752022,-1.257726,,,2021-07-09,MG,2022-04-06,DP
SP0522,PL0680,Siracusa,PL,en,37.066170,15.284260,,,2021-07-10,MG,2022-04-06,DP
SP0523,PL0681,Bordeaux,PL,en,44.837788,-0.579180,,,2021-07-10,MG,2022-04-06,DP
SP0524,PL0682,Basel,PL,en,47.559601,7.588576,,,2021-07-10,MG,2022-04-06,DP
SP0525,PL0683,Rotterdam,PL,en,51.924419,4.477733,,,2021-07-10,MG,2022-04-06,DP
SP0526,PL0684,Kyrgyztan,PL,en,42.869961,74.569962,,,2021-07-11,MG,2022-04-06,DP
SP0527,PL0685,Yongji,PL,en,39.480068,125.515129,,,2021-07-11,MG,2022-04-06,DP
SP0528,PL0686,Xiangyang,PL,en,32.017342,112.149147,,,2021-07-11,MG,2022-04-06,DP
SP0529,PL0687,Brody,PL,en,51.024052,21.204910,,,2021-07-11,MG,2022-04-06,DP
SP0530,PL0688,Kirkcaldy,PL,en,56.112831,-3.160730,,,2021-07-14,MG,2022-04-06,DP
SP0531,PL0689,Toruń,PL,en,53.015331,18.605700,,,2021-07-14,MG,2022-04-06,DP
SP0532,PL0690,Pisa,PL,en,43.722839,10.401689,,,2021-07-14,MG,2022-04-06,DP
SP0533,PL0691,Newington Butts,PL,en,51.491470,-0.102810,,,2021-07-14,MG,2022-04-06,DP
SP0534,PL0692,Hynčice,PL,en,50.623990,16.287360,,,2021-07-19,MG,2022-04-06,DP
SP0535,PL0693,Mainz,PL,en,49.992863,8.247253,,,2021-07-20,MG,2022-04-06,DP
SP0536,PL0694,Kesswill,PL,en,47.593730,9.315990,,,2021-07-20,MG,2022-04-06,DP
SP0537,PL0695,Takaoka,PL,en,36.754139,137.016693,,,2021-07-20,MG,2022-04-06,DP
SP0538,PL0696,Himi,PL,en,36.855652,136.984283,,,2021-07-20,MG,2022-04-06,DP
SP0539,PL0697,Kirriemuir,PL,en,56.674011,-3.004970,,,2021-07-21,MG,2022-04-06,DP
SP0540,PL0698,Mountain View,PL,en,37.386051,-122.083855,,,2021-07-21,MG,2022-04-06,DP
SP0541,PL0699,South Yarra,PL,en,-37.840000,144.988998,,,2021-07-25,MG,2022-04-06,DP
SP1000,,Jefferson,PL,en,36.42,-81.468889,,,2021-06-07,DP,2021-06-07,DP
SP1001,,Melksham,PL,en,51.371,-2.138,,,2021-06-07,DP,2021-06-07,DP
